event_id,name,date,time,multi_day_event,city,longitude,latitude,venue,capacity,segment,genre,sub_genre,area
LvZ18QxAj1bZeL8vGSGnc,EVERYWHERE AT ONCE: Dewin,2026-06-28,19:00:00,False,"Narberth, Pembrokeshire",-4.744204,51.798915,Queens Hall,-1,Music,Alternative,Adult Alternative Pop/Rock,"Narberth, Pembrokeshire"
1AdfZ_6GkTNNBkA,Sea Life Birmingham - Standard Entry,2026-07-09,09:30:00,False,Birmingham,-1.91332064,52.4790525,National SEA LIFE Centre Birmingham,-1,Miscellaneous,Family,Other,Birmingham
16djZ_6GAG7lrqu,Sea Life Brighton - Standard Admission,2026-07-09,10:00:00,False,Brighton,-0.13577386,50.81962932,SEA LIFE Brighton,-1,Miscellaneous,Family,Other,Brighton
17uOv0G65nt_3EX,Chessington World of Adventures - 1 Day Entry,2026-07-09,10:00:00,False,Surrey,-0.31189,51.35503,Chessington World of Adventures,-1,Miscellaneous,Family,Other,Surrey
17uOv0G6CLCvfvF,London Eye - Standard Experience,2026-07-09,10:00:00,False,London,-0.11735,51.500992,The London Eye,-1,Miscellaneous,Family,Other,Lambeth
17uOv0G6GE1UPYS,Madame Tussauds London - Standard Entry,2026-07-09,10:00:00,False,London,-0.15526,51.52248,Madame Tussauds London,-1,Miscellaneous,Family,Other,Westminster
17uOv0G6uhCszXr,London Dungeon - Standard Entry,2026-07-09,10:00:00,False,London,-0.11735,51.500992,The London Dungeon,-1,Miscellaneous,Family,Other,Lambeth
1AMZk3aGkdnmNBR,Blackpool Sandcastle Waterpark,2026-07-09,10:00:00,False,Blackpool,-3.05751757,53.79413438,Sandcastle Waterpark,-1,Miscellaneous,Family,Other,Blackpool
1AUZk8YGkd72Und,Thorpe Park Resort - One Day Entry,2026-07-09,10:00:00,False,Chertsey,-0.50856,51.40752,Thorpe Park,-1,Miscellaneous,Family,Other,Chertsey
1AdbZ_6GkBAveen,Sea Life Blackpool - Standard Entry,2026-07-09,10:00:00,False,Blackpool,-3.05507,53.81274,SEA LIFE Blackpool,-1,Miscellaneous,Family,Other,Blackpool
1AdbZ_FGkloJ6Z7,Madame Tussauds Blackpool - Standard Entry,2026-07-09,10:00:00,False,Blackpool,-3.05511829,53.81207924,Madame Tussauds Blackpool,-1,Miscellaneous,Family,Other,Blackpool
1AdjZ_6GkM3L3rx,Sea Life Manchester - Standard Entry,2026-07-09,10:00:00,False,Manchester,-2.34235349,53.46686792,SEA LIFE Manchester,-1,Miscellaneous,Family,Other,Manchester
1kuYv0udGACUMqa,Legoland Windsor - Daily Entry,2026-07-09,10:00:00,False,Windsor,-0.64988,51.459099,Legoland Windsor,-1,Miscellaneous,Undefined,Undefined,Windsor
G5vHZ_7FhhF_-,Warwick Castle - Daily Entry,2026-07-09,10:00:00,False,Warwick,-1.585766,52.280585,Warwick Castle,-1,Miscellaneous,Community/Civic,Community/Civic,Warwick
G5vHZ_GiSHl73,Sea Life London - Standard Entry,2026-07-09,10:00:00,False,London,-0.119252,51.50282,County Hall,-1,Miscellaneous,Family,Other,Lambeth
G5vHZbVHnFQur,Alton Towers Resort - One Day Entry,2026-07-09,10:00:00,False,Alton,-1.888653,52.988319,Alton Towers,-1,Miscellaneous,Family,Other,Alton
LvZ18QjyotUZAAYZv7_vf,Ramses and the Pharaoh’s Gold: The Exhibition,2026-07-09,10:00:00,False,London,-0.14214313,51.48187751,Neon at Battersea Power Station,-1,Miscellaneous,Family,Other,Wandsworth
LvZ18QjyotUZAAYZv7_v4,Ramses and the Pharaoh’s Gold: The Exhibition,2026-07-09,10:30:00,False,London,-0.14214313,51.48187751,Neon at Battersea Power Station,-1,Miscellaneous,Family,Other,Wandsworth
LvZ18QjyotUZAAYZv7_vp,Ramses and the Pharaoh’s Gold: The Exhibition,2026-07-09,11:00:00,False,London,-0.14214313,51.48187751,Neon at Battersea Power Station,-1,Miscellaneous,Family,Other,Wandsworth
LvZ18QjyotUZAAYZv7_v9,Ramses and the Pharaoh’s Gold: The Exhibition,2026-07-09,11:30:00,False,London,-0.14214313,51.48187751,Neon at Battersea Power Station,-1,Miscellaneous,Family,Other,Wandsworth
LvZ18QjyotUZAAYZv7_vb,Ramses and the Pharaoh’s Gold: The Exhibition,2026-07-09,12:00:00,False,London,-0.14214313,51.48187751,Neon at Battersea Power Station,-1,Miscellaneous,Family,Other,Wandsworth
LvZ18QjyotUZAAYZv7_v_,Ramses and the Pharaoh’s Gold: The Exhibition,2026-07-09,12:30:00,False,London,-0.14214313,51.48187751,Neon at Battersea Power Station,-1,Miscellaneous,Family,Other,Wandsworth
17GOv0G6uYnZYVa,Oran Mor Summer Panto - Big Bad Riding Hood,2026-07-09,13:00:00,False,Glasgow,-4.289157,55.87738,Oran Mor,-1,Arts & Theatre,Miscellaneous Theatre,Miscellaneous Theatre,Glasgow
LvZ18QjyotUZAAYZv7_vQ,Ramses and the Pharaoh’s Gold: The Exhibition,2026-07-09,13:00:00,False,London,-0.14214313,51.48187751,Neon at Battersea Power Station,-1,Miscellaneous,Family,Other,Wandsworth
LvZ18QjyotUZAAYZv7_vh,Ramses and the Pharaoh’s Gold: The Exhibition,2026-07-09,13:30:00,False,London,-0.14214313,51.48187751,Neon at Battersea Power Station,-1,Miscellaneous,Family,Other,Wandsworth
1AgZk3eGkd1sJ9t,Shakespeare's Globe - Much Ado About Nothing,2026-07-09,14:00:00,False,London,-0.096597,51.508111,"Globe Theatre, Shakespeare's Globe",-1,Arts & Theatre,Theatre,Drama,Southwark
1adjZbgr4CpZd56G,My Neighbour Totoro,2026-07-09,14:00:00,False,London,-0.119645,51.51429,Gillian Lynne Theatre,1295,Arts & Theatre,Theatre,Drama,Westminster
LvZ18QKADMbMQ08Zv2JWV,Guided Walks of the Old Course,2026-07-09,14:00:00,False,St Andrews,-2.808659,56.345632,St Andrews Links Clubhouse,-1,Sports,Miscellaneous,Miscellaneous,St Andrews
LvZ18QjyotUZAAYZv7_vj,Ramses and the Pharaoh’s Gold: The Exhibition,2026-07-09,14:00:00,False,London,-0.14214313,51.48187751,Neon at Battersea Power Station,-1,Miscellaneous,Family,Other,Wandsworth
17u8vxG6GCg7ftr,Operation Mincemeat: A New Musical,2026-07-09,14:30:00,False,Hull,-0.337235,53.747574,Hull New Theatre,-1,Arts & Theatre,Theatre,Musical,Hull
17uOv0G65Lotwve,Sinatra the Musical,2026-07-09,14:30:00,False,London,-0.118841,51.51312,Aldwych Theatre,-1,Arts & Theatre,Theatre,Musical,Westminster
17uOv0G6Gp3wJXs,Moulin Rouge! The Musical,2026-07-09,14:30:00,False,Liverpool,-2.978335,53.40891,Liverpool Empire Theatre,-1,Arts & Theatre,Theatre,Musical,Liverpool
1AMZkuJGkeV0Ab-,AVENUE Q,2026-07-09,14:30:00,False,London,-0.126119,51.516285,Shaftesbury Theatre,-1,Arts & Theatre,Theatre,Musical,Camden
1AMZkufGkdaIbCb,The Producers,2026-07-09,14:30:00,False,London,-0.127819,51.509954,Garrick Theatre,-1,Arts & Theatre,Theatre,Musical,Westminster
1AdjZbUGkzuwQdT,Disney's Hercules,2026-07-09,14:30:00,False,London,-0.120258,51.513008,Theatre Royal Drury Lane,2220,Arts & Theatre,Theatre,Musical,Westminster
1AgZkoaGket80Q1,The Boy Who Harnessed The Wind,2026-07-09,14:30:00,False,London,-0.130436,51.515607,sohoplace,-1,Arts & Theatre,Theatre,Drama,Westminster
1adjZbYOekbZdCa1,Kinky Boots,2026-07-09,14:30:00,False,London,-0.126308,51.509921,London Coliseum,2358,Arts & Theatre,Theatre,Musical,Westminster
G5vHZbw9hDfBH,Witness for the Prosecution,2026-07-09,14:30:00,False,London,-0.119252,51.50282,County Hall,-1,Arts & Theatre,Theatre,Drama,Lambeth
LvZ18QjyotUZAAYZv7_vq,Ramses and the Pharaoh’s Gold: The Exhibition,2026-07-09,14:30:00,False,London,-0.14214313,51.48187751,Neon at Battersea Power Station,-1,Miscellaneous,Family,Other,Wandsworth
Z3r9uZKbZL4Ze33L-Zd2,Grace Pervades,2026-07-09,14:30:00,False,London,-0.13128,51.50884,Theatre Royal Haymarket,-1,Arts & Theatre,Theatre,Drama,Westminster
Z3r9uZKbZL4Ze3jaNZeb,High Society,2026-07-09,14:30:00,False,London,-0.093919,51.519812,Barbican Theatre,1166,Arts & Theatre,Theatre,Musical,City of London
ZKr9uZKbZL4Ze3eNbZekL,Hamilton,2026-07-09,14:30:00,False,London,-0.142382,51.497012,Victoria Palace Theatre,-1,Arts & Theatre,Theatre,Musical,Westminster
ZKr9uZKbZL4Ze8-4-ZdaF,Hadestown,2026-07-09,14:30:00,False,London,-0.133935,51.511248,Lyric Theatre,-1,Arts & Theatre,Theatre,Musical,Westminster
ZKr9uZKbZL4ZeCOjfZk7L,Moulin Rouge! The Musical,2026-07-09,14:30:00,False,London,-0.1353998,51.5110543,Piccadilly Theatre,-1,Arts & Theatre,Theatre,Musical,Westminster
ZKr9uZKbZL4Zeo-b6ZeAr,Les Misérables,2026-07-09,14:30:00,False,London,-0.133106,51.512116,Sondheim Theatre,-1,Arts & Theatre,Theatre,Musical,Westminster
Zor9uZKbZL4Ze3x2vZa,The Oresteia,2026-07-09,14:30:00,False,London,-0.0880061,51.4992073,Bridge Theatre,-1,Arts & Theatre,Theatre,Drama,Southwark
Zor9uZKbZL4Zefe5NZL,Hot Mess: A New Musical,2026-07-09,14:30:00,False,London,-0.1421127,51.4987242,The Other Palace,-1,Arts & Theatre,Theatre,Musical,Westminster
LvZ18QjyotUZAAYZv7_vr,Ramses and the Pharaoh’s Gold: The Exhibition,2026-07-09,15:00:00,False,London,-0.14214313,51.48187751,Neon at Battersea Power Station,-1,Miscellaneous,Family,Other,Wandsworth
Z3r9uZKbZL4Zef7CNZe-,The Mousetrap,2026-07-09,15:00:00,False,London,-0.127672,51.512848,St Martin's Theatre,-1,Arts & Theatre,Theatre,Drama,Camden
ZKr9uZKbZL4Ze3A4LZek6,Mamma Mia!,2026-07-09,15:00:00,False,London,-0.119423,51.511933,Novello Theatre,-1,Arts & Theatre,Theatre,Musical,Westminster
Zor9uZKbZL4Ze3OppZN,The Truth,2026-07-09,15:00:00,False,London,-0.133935,51.511248,Apollo Theatre,-1,Arts & Theatre,Theatre,Drama,Westminster
LvZ18Q3v-ymmrPOZvNU6y,FRAMELESS 2026,2026-07-09,15:30:00,False,London,-0.15964317,51.51366919,Marble Arch Place,-1,Miscellaneous,Undefined,Undefined,Westminster
LvZ18Q_xoFLXWVOZvDGpT,Twist Museum - London's Home of Illusions PEAK,2026-07-09,16:00:00,False,London,-0.14319582,51.51539505,Twist Museum,-1,Miscellaneous,Family,Other,Westminster
LvZ18Qowhblaq0ZZvr4GO,FRAMELESS,2026-07-09,16:00:00,False,London,-0.15964317,51.51366919,Marble Arch Place,-1,Miscellaneous,Undefined,Undefined,Westminster
ZKr9uZKbZL4ZeCNuaZ6AC,SIX The Musical,2026-07-09,16:00:00,False,London,-0.12265,51.510546,Vaudeville Theatre,-1,Arts & Theatre,Theatre,Musical,Westminster
LvZ18Q_xoFLXWVOZvDG9Z,Twist Museum - London's Home of Illusions PEAK,2026-07-09,16:15:00,False,London,-0.14319582,51.51539505,Twist Museum,-1,Miscellaneous,Family,Other,Westminster
LvZ18Q_xoFLXWVOZvDG9v,Twist Museum - London's Home of Illusions PEAK,2026-07-09,16:30:00,False,London,-0.14319582,51.51539505,Twist Museum,-1,Miscellaneous,Family,Other,Westminster
LvZ18Q_xoFLXWVOZvDG9e,Twist Museum - London's Home of Illusions PEAK,2026-07-09,16:45:00,False,London,-0.14319582,51.51539505,Twist Museum,-1,Miscellaneous,Family,Other,Westminster
G5vHZ_dQ2CoCm,Orchestral Qawwali Project,2026-07-09,17:00:00,False,Llangollen,-3.1732473,52.9728542,"Live at Llangollen, Llangollen Pavilion",-1,Music,Classical,Classical/Vocal,Llangollen
G5vHZbM3j8P-r,The Maccabees,2026-07-09,17:00:00,False,London,-0.13354,51.59049,Alexandra Palace Park,-1,Music,Rock,Alternative Rock,Haringey
G5vHZbVxTtI6b,Billy Ocean with very special guest Marti Pellow,2026-07-09,17:00:00,False,Cardiff,-3.182167,51.481668,Cardiff Castle,-1,Music,R&B,Soul,Cardiff
LvZ18Q_xoFLXWVOZvDG9d,Twist Museum - London's Home of Illusions PEAK,2026-07-09,17:00:00,False,London,-0.14319582,51.51539505,Twist Museum,-1,Miscellaneous,Family,Other,Westminster
G5vHZbgd8hFZT,Billy Ocean- Official Ticket and Hotel Bundls,2026-07-09,17:01:00,False,Cardiff,-3.182167,51.481668,Cardiff Castle,-1,Music,R&B,Soul,Cardiff
LvZ18Q_xoFLXWVOZvDG97,Twist Museum - London's Home of Illusions PEAK,2026-07-09,17:15:00,False,London,-0.14319582,51.51539505,Twist Museum,-1,Miscellaneous,Family,Other,Westminster
16dfZbgfeG7whxL,England Men v India (Cricket),2026-07-09,17:30:00,False,Bristol,-2.585427,51.476892,Seat Unique Stadium,-1,Sports,Cricket,Cricket,Bristol
G5vHZbVUOag3z,Sounds of the City Present Johnny Marr,2026-07-09,17:30:00,False,Manchester,-2.256881,53.476524,Castlefield Bowl,-1,Music,Rock,Alternative Rock,Manchester
LvZ18Q_xoFLXWVOZvDG9A,Twist Museum - London's Home of Illusions PEAK,2026-07-09,17:30:00,False,London,-0.14319582,51.51539505,Twist Museum,-1,Miscellaneous,Family,Other,Westminster
Z3r9uZKbZL4Ze33ONZ6O,"Oh, Mary!",2026-07-09,17:30:00,False,London,-0.12651,51.5048,Trafalgar Theatre,-1,Arts & Theatre,Theatre,Comedy,Westminster
LvZ18Q_xoFLXWVOZvDG9k,Twist Museum - London's Home of Illusions PEAK,2026-07-09,17:45:00,False,London,-0.14319582,51.51539505,Twist Museum,-1,Miscellaneous,Family,Other,Westminster
16zZkoxx6ZAuvG2e,Ilana Glazer Live!,2026-07-09,18:00:00,False,Belfast,-5.92730641,54.59266713,The Limelight 1,-1,Arts & Theatre,Comedy,Comedy,Belfast
1AdfZ_7GkwtI0NG,Mouth of the Tyne Festival presents The K's,2026-07-09,18:00:00,False,Tynemouth,-1.419741,55.017666,Tynemouth Priory and Castle,-1,Music,Rock,Pop,Tynemouth
1AdfZbgGkwHBIZn,THE BEST OF ALL WORLDS - UK TOUR 2026 - SAMMY HAGAR,2026-07-09,18:00:00,False,London,0.005519,51.501581,The O2,20000,Music,Rock,Pop,Greenwich
1AgZku8Gkel46oP,Deacon Blue,2026-07-09,18:00:00,False,Halifax,-1.85657,53.721432,The Piece Hall,-1,Music,Rock,Pop,Halifax
LvZ18QLFcSABGRZv1qASZ,Editors,2026-07-09,18:00:00,False,Birmingham,-1.89312,52.508179,Sports Illustrated Warehouse,-1,Music,Rock,Alternative Rock,Birmingham
LvZ18QQZi14W5HOZl5HIS,Shai Hulud,2026-07-09,18:00:00,False,London,-0.03838,51.475524,New Cross Inn,-1,Music,Rock,Alternative Rock,Lewisham
LvZ18Q_xoFLXWVOZvDG96,Twist Museum - London's Home of Illusions PEAK,2026-07-09,18:00:00,False,London,-0.14319582,51.51539505,Twist Museum,-1,Miscellaneous,Family,Other,Westminster
1AgZkuPGkdmOlDq,Deacon Blue- Official Ticket and Hotel Bundls,2026-07-09,18:01:00,False,Halifax,-1.85657,53.721432,The Piece Hall,-1,Music,Rock,Pop,Halifax
LvZ18Q_xoFLXWVOZvDG9F,Twist Museum - London's Home of Illusions PEAK,2026-07-09,18:15:00,False,London,-0.14319582,51.51539505,Twist Museum,-1,Miscellaneous,Family,Other,Westminster
1AMZk38GkdrVa3A,THE BEST OF ALL WORLDS - UK TOUR 2026 - SAMMY HAGAR,2026-07-09,18:30:00,False,London,-0.21060857,51.49641301,British Airways ARC,-1,Music,Rock,Pop,Hammersmith and Fulham
1AUZku9Gkd2raPw,Sounds of the City Present Wet Leg,2026-07-09,18:30:00,False,Leeds,-1.548059,53.800966,Millennium Square Leeds,-1,Music,Rock,Alternative Rock,Leeds
1AdfZ_eGkDtH9wQ,Mamma Mia! The Party,2026-07-09,18:30:00,False,London,0.005519,51.501581,The O2,20000,Arts & Theatre,Theatre,Musical,Greenwich
LvZ18Q0C4HTwr5AZwuPVd,"Live Jazz from the Piano Bar at Red Room Studios, Soho",2026-07-09,18:30:00,False,London,-0.1343758,51.5111127,Piano Bar Soho,-1,Music,Jazz,Jazz,Westminster
LvZ18Q_xoFLXWVOZvDG9a,Twist Museum - London's Home of Illusions PEAK,2026-07-09,18:30:00,False,London,-0.14319582,51.51539505,Twist Museum,-1,Miscellaneous,Family,Other,Westminster
LvZ18QqmyOChlyZZMazAj,Marty O'Reilly,2026-07-09,18:30:00,False,Saltaire,-1.78832,53.837635,The Live Room,-1,Music,Folk,Folk,Saltaire
LvZ18QxN57PgMt8ZvJaAu,Soho Explorer Jazz Sessions from the Piano Bar,2026-07-09,18:30:00,False,London,-0.1343758,51.5111127,Piano Bar Soho,-1,Music,Jazz,Jazz,Westminster
17u8v0G6uJ_4pOU,CHAT NOIR!,2026-07-09,18:45:00,False,London,-0.20485809,51.4905226,The Lost Estate,-1,Arts & Theatre,Variety,Cabaret,Hammersmith and Fulham
16MZku9PpZA265G2,My Neighbour Totoro,2026-07-09,19:00:00,False,London,-0.119645,51.51429,Gillian Lynne Theatre,1295,Arts & Theatre,Theatre,Drama,Westminster
17GOv0G655mss7g,Bilk,2026-07-09,19:00:00,False,London,-0.103742,51.546706,"The Grace, London",-1,Music,Rock,Pop,Islington
17u8v0G65hHREom,To Kill A Mockingbird,2026-07-09,19:00:00,False,London,-0.128249,51.511067,Wyndham's Theatre,759,Arts & Theatre,Theatre,Drama,Westminster
17u8v0G6uMl3UjQ,Belle Livingstone's 58th Street Country Club,2026-07-09,19:00:00,False,London,-0.06736413,51.47289512,Belle Livingstone's 58th Street Country Club,-1,Music,Jazz,Jazz,Southwark
17uYv0G65IuGP9v,Stranger Things: The First Shadow,2026-07-09,19:00:00,False,London,-0.129497,51.514387,Phoenix Theatre,-1,Arts & Theatre,Theatre,Drama,Camden
1AdjZbSGkDN11EO,Matilda The Musical,2026-07-09,19:00:00,False,London,-0.126407,51.51351,Cambridge Theatre,1227,Arts & Theatre,Theatre,Musical,Camden
G5dzZ_60guDtj,American Hi-Fi,2026-07-09,19:00:00,False,London,-0.106613,51.534469,O2 Academy Islington,-1,Music,Rock,Alternative Rock,Islington
G5dzZ_7hjpIzY,Kevin Morby,2026-07-09,19:00:00,False,Manchester,-2.243098,53.474423,O2 Ritz Manchester,-1,Music,Rock,Pop,Manchester
G5dzZ_aMQ_Kzu,Jon B presents Where Will Jon B? UK Tour,2026-07-09,19:00:00,False,Birmingham,-1.887562,52.475756,O2 Institute3 Birmingham,-1,Music,R&B,R&B,Birmingham
LvZ18Q2d9-fzRbYZlydON,THE BLACKOUT - 9 JULY - ABIGOLIAH SCHAMAUN,2026-07-09,19:00:00,False,London,-0.01077,51.481328,Up The Creek,-1,Arts & Theatre,Comedy,Comedy,Greenwich
LvZ18Q3hQxXpDVZZvPEC8,Comedy in Your Eye - Stand up Comedy in Camden Town,2026-07-09,19:00:00,False,London,-0.1415,51.54102,Comedy In Your Eye,-1,Arts & Theatre,Theatre,Comedy,Camden
LvZ18QOHumBwbQYZPDnS2,Matt-Felix,2026-07-09,19:00:00,False,London,-0.150029,51.543345,London Barfly,-1,Music,Pop,Singer-Songwriter,Camden
LvZ18QQBw0KMKwYZ0OiLK,Pinkshift & Heart Attack Man,2026-07-09,19:00:00,False,Birmingham,-1.912465,52.480185,Birmingham Flapper,-1,Music,Rock,Punk,Birmingham
LvZ18QjmmRPQAoYZzNlGl,Namasenda,2026-07-09,19:00:00,False,London,-0.129112,51.515497,The Lower Third,-1,Music,Dance/Electronic,Dance Band,Camden
LvZ18QxN7FbzYRYZvNl72,Round 41 - Live Jazz and Fusion Night,2026-07-09,19:00:00,False,London,-0.1342534,51.5111721,Jack Solomons Club,-1,Music,Jazz,Jazz,Westminster
Z3r9uZKbZL4Ze3x2vZdQ,The Oresteia,2026-07-09,19:00:00,False,London,-0.0880061,51.4992073,Bridge Theatre,-1,Arts & Theatre,Theatre,Drama,Southwark
Z3r9uZKbZL4Zef7CLZeA,Allegra,2026-07-09,19:00:00,False,London,-0.131851,51.509326,The Harold Pinter Theatre ,-1,Arts & Theatre,Theatre,Comedy,Westminster
ZKr9uZKbZL4Ze83obZA12,Magic Mike Live,2026-07-09,19:00:00,False,London,-0.129629,51.511196,The Theatre at the Hippodrome Casino,-1,Arts & Theatre,Miscellaneous,Miscellaneous,Westminster
Zor9uZKbZL4ZefdeAZ9,Arcadia,2026-07-09,19:00:00,False,London,-0.127522,51.510174,Duke of Yorks Theatre,-1,Arts & Theatre,Theatre,Drama,Westminster
G5vHZ_dhywPdl,Mojo Brookzz: I Know You F*cking Lying,2026-07-09,19:15:00,False,Birmingham,-1.89662,52.474541,Glee Club,-1,Arts & Theatre,Comedy,Comedy,Birmingham
16MZkGFZ0ZAuaCau,Kinky Boots,2026-07-09,19:30:00,False,London,-0.126308,51.509921,London Coliseum,2358,Arts & Theatre,Theatre,Musical,Westminster
16dfZbwG3G7B4y5,Come Alive! The Greatest Showman Circus Spectacular,2026-07-09,19:30:00,False,London,-0.19846932,51.48850056,Empress Museum,-1,Arts & Theatre,Theatre,Musical,Kensington and Chelsea
17u8v0G65CrJwbo,Faulty Towers the Dining Experience,2026-07-09,19:30:00,False,London,-0.12395745,51.52226825,President Hotel,-1,Arts & Theatre,Theatre,Comedy,Camden
17u8v0G65I3cDVP,The Book Of Mormon,2026-07-09,19:30:00,False,London,-0.131809,51.510009,Prince of Wales Theatre,1160,Arts & Theatre,Theatre,Musical,Westminster
17u8v0G65rI9dqp,Cyrano de Bergerac,2026-07-09,19:30:00,False,London,-0.1284654,51.5142805,Noel Coward Theatre,942,Arts & Theatre,Theatre,Drama,Camden
17u8vxG6GCg7VtN,Operation Mincemeat: A New Musical,2026-07-09,19:30:00,False,Hull,-0.337235,53.747574,Hull New Theatre,-1,Arts & Theatre,Theatre,Musical,Hull
17uOv0G65Logweh,Sinatra the Musical,2026-07-09,19:30:00,False,London,-0.118841,51.51312,Aldwych Theatre,-1,Arts & Theatre,Theatre,Musical,Westminster
17uOv0G6Gp3XMZR,Moulin Rouge! The Musical,2026-07-09,19:30:00,False,Liverpool,-2.978335,53.40891,Liverpool Empire Theatre,-1,Arts & Theatre,Theatre,Musical,Liverpool
17uYv0G6558re-d,Heathers The Musical,2026-07-09,19:30:00,False,London,-0.159855,51.51329,The Arts at Marble Arch,-1,Arts & Theatre,Theatre,Musical,Westminster
1AMZkGUGkdBGnED,Phantom of the Opera,2026-07-09,19:30:00,False,London,-0.132044,51.508133,His Majesty's Theatre,1216,Arts & Theatre,Theatre,Musical,Westminster
1AMZkGYGkdvi_KD,Rumours of Fleetwood Mac,2026-07-09,19:30:00,False,Bristol,-2.5982703,51.45454646,Bristol Beacon,-1,Music,Undefined,Undefined,Bristol
1AMZko0GkeWXJZV,The Hunger Games On Stage,2026-07-09,19:30:00,False,London,-0.0134276,51.5035337,Troubadour Canary Wharf Theatre,-1,Arts & Theatre,Theatre,Drama,Tower Hamlets
1AMZkuJGkeVs4_e,AVENUE Q,2026-07-09,19:30:00,False,London,-0.126119,51.516285,Shaftesbury Theatre,-1,Arts & Theatre,Theatre,Musical,Camden
1AMZkufGkdagb27,The Producers,2026-07-09,19:30:00,False,London,-0.127819,51.509954,Garrick Theatre,-1,Arts & Theatre,Theatre,Musical,Westminster
1AUZk1bGkdgvf0R,Queen of the Night - A Tribute to Whitney Houston,2026-07-09,19:30:00,False,Inverness,-4.230822,57.473094,Eden Court Theatre,-1,Music,Rock,Pop,Inverness
1AUZkGyGkeXyaMY,Wicked,2026-07-09,19:30:00,False,London,-0.142691,51.495785,Apollo Victoria Theatre,2328,Arts & Theatre,Theatre,Musical,Westminster
1AdbZbSGkDAja6Q,The Devil Wears Prada,2026-07-09,19:30:00,False,London,-0.129679,51.516971,Dominion Theatre,2083,Arts & Theatre,Theatre,Musical,Camden
1AdfZbgGkBlKEJV,Beetlejuice,2026-07-09,19:30:00,False,London,-0.130964,51.513763,Prince Edward Theatre,-1,Arts & Theatre,Theatre,Musical,Westminster
1AdjZbIGkRBt7Y0,The Play That Goes Wrong,2026-07-09,19:30:00,False,London,-0.119732,51.512118,Duchess Theatre,-1,Arts & Theatre,Theatre,Comedy,Westminster
1AdjZbUGkzuTQ7-,Disney's Hercules,2026-07-09,19:30:00,False,London,-0.120258,51.513008,Theatre Royal Drury Lane,2220,Arts & Theatre,Theatre,Musical,Westminster
1AgZk3eGkeM-0sD,Shakespeare's Globe - a Midsummer Night's Dream,2026-07-09,19:30:00,False,London,-0.096597,51.508111,"Globe Theatre, Shakespeare's Globe",-1,Arts & Theatre,Theatre,Comedy,Southwark
1AgZkoSGkdhxkr7,Cambridge Comedy Garden: Ross Noble & Ivo Graham,2026-07-09,19:30:00,False,Cambridge,0.126833,52.20048,Parker's Piece Cambridge,-1,Arts & Theatre,Comedy,Comedy,Cambridge
1AgZkoaGketrfQg,The Boy Who Harnessed The Wind,2026-07-09,19:30:00,False,London,-0.130436,51.515607,sohoplace,-1,Arts & Theatre,Theatre,Drama,Westminster
1ku8vNuNGACSrOy,Oliver!,2026-07-09,19:30:00,False,London,-0.13324,51.512019,Gielgud Theatre,986,Arts & Theatre,Theatre,Musical,Westminster
G5vHZbslMVKtu,An Evening with David Sedaris,2026-07-09,19:30:00,False,London,-0.116838,51.505777,Royal Festival Hall,-1,Arts & Theatre,Miscellaneous Theatre,Miscellaneous Theatre,Lambeth
G5vHZbw9jF7D7,Witness for the Prosecution,2026-07-09,19:30:00,False,London,-0.119252,51.50282,County Hall,-1,Arts & Theatre,Theatre,Drama,Lambeth
LvZ18Q0ShRmJeKXhk3BUU,"Rocky Dawuni | London, The 100 Club",2026-07-09,19:30:00,False,London,-0.135345,51.516225,100 Club,-1,Music,Reggae,Reggae,Westminster
LvZ18Q8uxSqYYH8ZlfMyB,Bat Sabbath,2026-07-09,19:30:00,False,Southend-On-Sea,0.71916,51.533277,Chinnerys,-1,Music,Undefined,Undefined,Southend-On-Sea
LvZ18Q9Cxbdi8jOZ0jG6m,Yellowman & The Upper Cut,2026-07-09,19:30:00,False,Manchester,-2.234389,53.485235,Band On The Wall.,-1,Music,Reggae,Reggae,Manchester
LvZ18QO6E5_0DZYvqZ7DL,King Tuts Summer Nights - Golden Ticket,2026-07-09,19:30:00,False,Glasgow,-4.265037,55.862637,King Tuts Wah Wah Hut,-1,Music,Rock,Pop,Glasgow
LvZ18QO6tzqQrmYva6yJS,King Tut's Summer Nights Presents: Marigold,2026-07-09,19:30:00,False,Glasgow,-4.265037,55.862637,King Tuts Wah Wah Hut,-1,Music,Rock,Pop,Glasgow
LvZ18QQ5e9hGMIZZiN60P,SoulSwitch + Supports,2026-07-09,19:30:00,False,Cannock,-2.031285,56.690633,The Station,-1,Music,Rock,Pop,Cannock
LvZ18Qh6eD1bqZOZiX37k,The Best in Stand Up - Thursday 9th July,2026-07-09,19:30:00,False,London,-0.13233095,51.50998051,The Comedy Store,-1,Arts & Theatre,Comedy,Comedy,Westminster
LvZ18QjydqyH6S8Z0cWOl,Thrum,2026-07-09,19:30:00,False,Leeds,-1.556838,53.810749,Lending Rooms,-1,Music,Rock,Rock,Leeds
Z3r9uZKbZL4Ze33L-Zd8,Grace Pervades,2026-07-09,19:30:00,False,London,-0.13128,51.50884,Theatre Royal Haymarket,-1,Arts & Theatre,Theatre,Drama,Westminster
Z3r9uZKbZL4Ze3OLLZe_,Dark of the Moon,2026-07-09,19:30:00,False,London,-0.124122,51.508087,Charing Cross Theatre,265,Arts & Theatre,Theatre,Musical,Westminster
Z3r9uZKbZL4Ze3bd5Zdk,1536,2026-07-09,19:30:00,False,London,-0.128026,51.513006,Ambassadors Theatre,444,Arts & Theatre,Theatre,Drama,Camden
Z3r9uZKbZL4Ze3jaNZe_,High Society,2026-07-09,19:30:00,False,London,-0.093919,51.519812,Barbican Theatre,1166,Arts & Theatre,Theatre,Musical,City of London
Z3r9uZKbZL4Ze3x2dZe7,Glengarry Glen Ross,2026-07-09,19:30:00,False,London,-0.1090443,51.5019366,The Old Vic,1067,Arts & Theatre,Theatre,Drama,Lambeth
Z3r9uZKbZL4Zef7CNZex,The Mousetrap,2026-07-09,19:30:00,False,London,-0.127672,51.512848,St Martin's Theatre,-1,Arts & Theatre,Theatre,Drama,Camden
ZKr9uZKbZL4Ze310LZeeh,Cabaret,2026-07-09,19:30:00,False,London,-0.123719,51.506975,Playhouse Theatre,865,Arts & Theatre,Theatre,Musical,Westminster
ZKr9uZKbZL4Ze3A4LZekF,Mamma Mia!,2026-07-09,19:30:00,False,London,-0.119423,51.511933,Novello Theatre,-1,Arts & Theatre,Theatre,Musical,Westminster
ZKr9uZKbZL4Ze3eNbZekO,Hamilton,2026-07-09,19:30:00,False,London,-0.142382,51.497012,Victoria Palace Theatre,-1,Arts & Theatre,Theatre,Musical,Westminster
ZKr9uZKbZL4Ze8-4-Zdaa,Hadestown,2026-07-09,19:30:00,False,London,-0.133935,51.511248,Lyric Theatre,-1,Arts & Theatre,Theatre,Musical,Westminster
ZKr9uZKbZL4ZeCOjfZk7O,Moulin Rouge! The Musical,2026-07-09,19:30:00,False,London,-0.1353998,51.5110543,Piccadilly Theatre,-1,Arts & Theatre,Theatre,Musical,Westminster
ZKr9uZKbZL4ZeCj6jZk60,Disney's The Lion King,2026-07-09,19:30:00,False,London,-0.120008,51.511718,Lyceum Theatre,2100,Arts & Theatre,Theatre,Musical,Westminster
ZKr9uZKbZL4Zeo-b6ZeAL,Les Misérables,2026-07-09,19:30:00,False,London,-0.133106,51.512116,Sondheim Theatre,-1,Arts & Theatre,Theatre,Musical,Westminster
ZKr9uZKbZL4ZeorGbZeaq,Titanique,2026-07-09,19:30:00,False,London,-0.133724,51.509707,Criterion Theatre,-1,Arts & Theatre,Theatre,Musical,Westminster
Zor9uZKbZL4Ze3-5oZF,-320°F,2026-07-09,19:30:00,False,London,-0.10626,51.529419,Sadler's Wells,-1,Arts & Theatre,Dance,Ballet,Islington
Zor9uZKbZL4Ze38NdZ_,Relics,2026-07-09,19:30:00,False,London,-0.226795,51.492895,Lyric Theatre Hammersmith,-1,Arts & Theatre,Theatre,Drama,Hammersmith and Fulham
Zor9uZKbZL4Ze3x2vZ1,The Oresteia,2026-07-09,19:30:00,False,London,-0.0880061,51.4992073,Bridge Theatre,-1,Arts & Theatre,Theatre,Drama,Southwark
Zor9uZKbZL4Zefe5NZO,Hot Mess: A New Musical,2026-07-09,19:30:00,False,London,-0.1421127,51.4987242,The Other Palace,-1,Arts & Theatre,Theatre,Musical,Westminster
16dfZ_djVG7Ty3f,Abba Voyage - VIP Premium Package,2026-07-09,19:45:00,False,London,-0.01362306,51.53327366,ABBA Arena,-1,Music,Pop,Pop,Newham
1AgZkCKGkesMyt-,ABBA Voyage,2026-07-09,19:45:00,False,London,-0.01362306,51.53327366,ABBA Arena,-1,Music,Pop,Pop,Newham
G5vHZ_6cw0o3F,Gary Owen: No Hard Feelings,2026-07-09,19:45:00,False,Cardiff,-3.165372,51.463484,Cardiff Glee Club,-1,Arts & Theatre,Comedy,Comedy,Cardiff
1AdbZ_FGkXXzUsV,Jeff Darko - LAR LAR LAND Presents Psychedelic Gospel,2026-07-09,20:00:00,False,Glasgow,-4.299682,55.864584,The Poetry Club SWG3,-1,Music,Other,Other,Glasgow
1AdfZ_dGkBm-VL2,Michelle Wolf - Best Job in the World,2026-07-09,20:00:00,False,London,-0.02002133,51.58613733,Soho Theatre Walthamstow,-1,Arts & Theatre,Comedy,Comedy,Waltham Forest
1kGOv0p8GA5vYi-,Barbatuques - Restaurant,2026-07-09,20:00:00,False,London,-0.143343,51.53859,Jazz Cafe,-1,Music,Other,Other,Camden
1kGOv0p8GA5vYip,Barbatuques,2026-07-09,20:00:00,False,London,-0.143343,51.53859,Jazz Cafe,-1,Music,Other,Other,Camden
LvZ18Qx4Hfw5hoOZV_JHK,Amplify - The Class / Once Chosen / Hilltop Droogs / James Roberts,2026-07-09,20:00:00,False,St Albans,-0.329006,51.750295,The Horn,-1,Music,Alternative,Alternative,St Albans
ZKr9uZKbZL4ZeCNuaZ6A2,SIX The Musical,2026-07-09,20:00:00,False,London,-0.12265,51.510546,Vaudeville Theatre,-1,Arts & Theatre,Theatre,Musical,Westminster
Zor9uZKbZL4Ze3OppZ0,The Truth,2026-07-09,20:00:00,False,London,-0.133935,51.511248,Apollo Theatre,-1,Arts & Theatre,Theatre,Drama,Westminster
LvZ18Q0C4HTwr5AZwuPVe,"Live Jazz from the Piano Bar at Red Room Studios, Soho",2026-07-09,20:30:00,False,London,-0.1343758,51.5111127,Piano Bar Soho,-1,Music,Jazz,Jazz,Westminster
LvZ18QxN5xk01AOZvZbV4,"The Cocktail Set from Piano Bar at Red Room Studios, Soho - Live Jazz",2026-07-09,20:30:00,False,London,-0.1343758,51.5111127,Piano Bar Soho,-1,Music,Jazz,Jazz,Westminster
Z3r9uZKbZL4Ze33ONZ6-,"Oh, Mary!",2026-07-09,20:45:00,False,London,-0.12651,51.5048,Trafalgar Theatre,-1,Arts & Theatre,Theatre,Comedy,Westminster
LvZ18Q0VFRjtcLeXdSuxg,World Cup Screening: France vs Morocco,2026-07-09,21:00:00,False,London,-0.114632,51.461795,Prince Of Wales,-1,Sports,Soccer,Soccer,Lambeth
LvZ18Q8ef7zKs48Z0sc11,Acantha Lang sings the best of Gladys Knight,2026-07-09,21:00:00,False,London,-0.022271,51.505252,"Boisdale, Canary Wharf",-1,Music,R&B,Soul,Tower Hamlets
ZKr9uZKbZL4Ze83obZA18,Magic Mike Live,2026-07-09,21:30:00,False,London,-0.129629,51.511196,The Theatre at the Hippodrome Casino,-1,Arts & Theatre,Miscellaneous,Miscellaneous,Westminster
LvZ18Q_YEp3eVSYZv8384,Twist Museum - London's Home of Illusions PEAK,2026-07-09,23:00:00,False,London,-0.14319582,51.51539505,Twist Museum,-1,Miscellaneous,Family,Other,Westminster
1AdfZ_6GkTNs1kI,Sea Life Birmingham - Standard Entry,2026-07-10,09:30:00,False,Birmingham,-1.91332064,52.4790525,National SEA LIFE Centre Birmingham,-1,Miscellaneous,Family,Other,Birmingham
16djZ_6GAG7zmLe,Sea Life Brighton - Standard Admission,2026-07-10,10:00:00,False,Brighton,-0.13577386,50.81962932,SEA LIFE Brighton,-1,Miscellaneous,Family,Other,Brighton
17uOv0G65ntP3IO,Chessington World of Adventures - 1 Day Entry,2026-07-10,10:00:00,False,Surrey,-0.31189,51.35503,Chessington World of Adventures,-1,Miscellaneous,Family,Other,Surrey
17uOv0G6CLC27v0,London Eye - Standard Experience,2026-07-10,10:00:00,False,London,-0.11735,51.500992,The London Eye,-1,Miscellaneous,Family,Other,Lambeth
17uOv0G6GE5ePS6,Madame Tussauds London - Standard Entry,2026-07-10,10:00:00,False,London,-0.15526,51.52248,Madame Tussauds London,-1,Miscellaneous,Family,Other,Westminster
17uOv0G6uhCTITy,London Dungeon - Standard Entry,2026-07-10,10:00:00,False,London,-0.11735,51.500992,The London Dungeon,-1,Miscellaneous,Family,Other,Lambeth
1AMZk3aGkdnHND3,Blackpool Sandcastle Waterpark,2026-07-10,10:00:00,False,Blackpool,-3.05751757,53.79413438,Sandcastle Waterpark,-1,Miscellaneous,Family,Other,Blackpool
1AUZk8YGkd7jJn0,Thorpe Park Resort - One Day Entry,2026-07-10,10:00:00,False,Chertsey,-0.50856,51.40752,Thorpe Park,-1,Miscellaneous,Family,Other,Chertsey
1AdbZ_6GkBAuwd7,Sea Life Blackpool - Standard Entry,2026-07-10,10:00:00,False,Blackpool,-3.05507,53.81274,SEA LIFE Blackpool,-1,Miscellaneous,Family,Other,Blackpool
1AdbZ_FGkloSMvG,Madame Tussauds Blackpool - Standard Entry,2026-07-10,10:00:00,False,Blackpool,-3.05511829,53.81207924,Madame Tussauds Blackpool,-1,Miscellaneous,Family,Other,Blackpool
1AdjZ_6GkM3lwrY,Sea Life Manchester - Standard Entry,2026-07-10,10:00:00,False,Manchester,-2.34235349,53.46686792,SEA LIFE Manchester,-1,Miscellaneous,Family,Other,Manchester
1kuYv0udGA2dEqf,Legoland Windsor - Daily Entry,2026-07-10,10:00:00,False,Windsor,-0.64988,51.459099,Legoland Windsor,-1,Miscellaneous,Undefined,Undefined,Windsor
G5dzZbtrYmYD1,Bluey's Big Play,2026-07-10,10:00:00,False,Brighton,-0.146331,50.82153,The Brighton Centre,-1,Arts & Theatre,Children's Theatre,Children's Theatre,Brighton
G5vHZ_7FhIIQk,Warwick Castle - Daily Entry,2026-07-10,10:00:00,False,Warwick,-1.585766,52.280585,Warwick Castle,-1,Miscellaneous,Community/Civic,Community/Civic,Warwick
G5vHZ_GiV1lAF,Sea Life London - Standard Entry,2026-07-10,10:00:00,False,London,-0.119252,51.50282,County Hall,-1,Miscellaneous,Family,Other,Lambeth
G5vHZbVHn4QuR,Alton Towers Resort - One Day Entry,2026-07-10,10:00:00,False,Alton,-1.888653,52.988319,Alton Towers,-1,Miscellaneous,Family,Other,Alton
LvZ18Q3v-ymmrPOZvNU6D,FRAMELESS 2026,2026-07-10,10:00:00,False,London,-0.15964317,51.51366919,Marble Arch Place,-1,Miscellaneous,Undefined,Undefined,Westminster
LvZ18Q_xNuMIbzOZvz2NM,Twist Museum - London's Home of Illusions PEAK,2026-07-10,10:00:00,False,London,-0.14319582,51.51539505,Twist Museum,-1,Miscellaneous,Family,Other,Westminster
LvZ18QjyotUZAAYZv7_v-,Ramses and the Pharaoh’s Gold: The Exhibition,2026-07-10,10:00:00,False,London,-0.14214313,51.48187751,Neon at Battersea Power Station,-1,Miscellaneous,Family,Other,Wandsworth
LvZ18Q_xNuMIbzOZvz2Nz,Twist Museum - London's Home of Illusions PEAK,2026-07-10,10:15:00,False,London,-0.14319582,51.51539505,Twist Museum,-1,Miscellaneous,Family,Other,Westminster
LvZ18Q3v-ymmrPOZvNU6H,FRAMELESS 2026,2026-07-10,10:30:00,False,London,-0.15964317,51.51366919,Marble Arch Place,-1,Miscellaneous,Undefined,Undefined,Westminster
LvZ18Q_xNuMIbzOZvz2Ny,Twist Museum - London's Home of Illusions PEAK,2026-07-10,10:30:00,False,London,-0.14319582,51.51539505,Twist Museum,-1,Miscellaneous,Family,Other,Westminster
LvZ18QjyotUZAAYZv7_vx,Ramses and the Pharaoh’s Gold: The Exhibition,2026-07-10,10:30:00,False,London,-0.14214313,51.48187751,Neon at Battersea Power Station,-1,Miscellaneous,Family,Other,Wandsworth
LvZ18Q_xNuMIbzOZvz2NB,Twist Museum - London's Home of Illusions PEAK,2026-07-10,10:45:00,False,London,-0.14319582,51.51539505,Twist Museum,-1,Miscellaneous,Family,Other,Westminster
1AdfZbgGkTruG30,Racing to Zero Summer Mile The Property Raceday,2026-07-10,11:00:00,False,Ascot,-0.67942033,51.41231419,Ascot Racecourse,-1,Sports,Equestrian,Horse Racing,Ascot
LvZ18Q3v-ymmrPOZvNU6W,FRAMELESS 2026,2026-07-10,11:00:00,False,London,-0.15964317,51.51366919,Marble Arch Place,-1,Miscellaneous,Undefined,Undefined,Westminster
LvZ18QKADMbMQ08Zv2JWg,Guided Walks of the Old Course,2026-07-10,11:00:00,False,St Andrews,-2.808659,56.345632,St Andrews Links Clubhouse,-1,Sports,Miscellaneous,Miscellaneous,St Andrews
LvZ18Q_xNuMIbzOZvz2ND,Twist Museum - London's Home of Illusions PEAK,2026-07-10,11:00:00,False,London,-0.14319582,51.51539505,Twist Museum,-1,Miscellaneous,Family,Other,Westminster
LvZ18QjyotUZAAYZv7_vN,Ramses and the Pharaoh’s Gold: The Exhibition,2026-07-10,11:00:00,False,London,-0.14214313,51.48187751,Neon at Battersea Power Station,-1,Miscellaneous,Family,Other,Wandsworth
Zor9uZKbZL4Ze3x1aZj,The Tiger Who Came To Tea,2026-07-10,11:00:00,False,London,-0.13128,51.50884,Theatre Royal Haymarket,-1,Arts & Theatre,Children's Theatre,Children's Theatre,Westminster
LvZ18Q_xNuMIbzOZvz2NH,Twist Museum - London's Home of Illusions PEAK,2026-07-10,11:15:00,False,London,-0.14319582,51.51539505,Twist Museum,-1,Miscellaneous,Family,Other,Westminster
LvZ18Q3v-ymmrPOZvNU6X,FRAMELESS 2026,2026-07-10,11:30:00,False,London,-0.15964317,51.51366919,Marble Arch Place,-1,Miscellaneous,Undefined,Undefined,Westminster
LvZ18Q_xNuMIbzOZvz2NW,Twist Museum - London's Home of Illusions PEAK,2026-07-10,11:30:00,False,London,-0.14319582,51.51539505,Twist Museum,-1,Miscellaneous,Family,Other,Westminster
LvZ18QjyotUZAAYZv7_v0,Ramses and the Pharaoh’s Gold: The Exhibition,2026-07-10,11:30:00,False,London,-0.14214313,51.48187751,Neon at Battersea Power Station,-1,Miscellaneous,Family,Other,Wandsworth
LvZ18Q_xNuMIbzOZvz2NX,Twist Museum - London's Home of Illusions PEAK,2026-07-10,11:45:00,False,London,-0.14319582,51.51539505,Twist Museum,-1,Miscellaneous,Family,Other,Westminster
16djZbzkpG7X9uN,Friday Day - Wireless 2026,2026-07-10,12:00:00,False,London,-0.105881,51.564635,Finsbury Park,-1,Music,Undefined,Undefined,Islington
17GOv0G6uYioOgm,Oran Mor Summer Panto - Big Bad Riding Hood,2026-07-10,12:00:00,False,Glasgow,-4.289157,55.87738,Oran Mor,-1,Arts & Theatre,Miscellaneous Theatre,Miscellaneous Theatre,Glasgow
LvZ18Q3v-ymmrPOZvNU6T,FRAMELESS 2026,2026-07-10,12:00:00,False,London,-0.15964317,51.51366919,Marble Arch Place,-1,Miscellaneous,Undefined,Undefined,Westminster
LvZ18Q_xNuMIbzOZvz2NT,Twist Museum - London's Home of Illusions PEAK,2026-07-10,12:00:00,False,London,-0.14319582,51.51539505,Twist Museum,-1,Miscellaneous,Family,Other,Westminster
LvZ18QjyotUZAAYZv7_vP,Ramses and the Pharaoh’s Gold: The Exhibition,2026-07-10,12:00:00,False,London,-0.14214313,51.48187751,Neon at Battersea Power Station,-1,Miscellaneous,Family,Other,Wandsworth
LvZ18Q_xNuMIbzOZvz20Z,Twist Museum - London's Home of Illusions PEAK,2026-07-10,12:15:00,False,London,-0.14319582,51.51539505,Twist Museum,-1,Miscellaneous,Family,Other,Westminster
LvZ18Q3v-ymmrPOZvNUFZ,FRAMELESS 2026,2026-07-10,12:30:00,False,London,-0.15964317,51.51366919,Marble Arch Place,-1,Miscellaneous,Undefined,Undefined,Westminster
LvZ18Q_xNuMIbzOZvz20v,Twist Museum - London's Home of Illusions PEAK,2026-07-10,12:30:00,False,London,-0.14319582,51.51539505,Twist Museum,-1,Miscellaneous,Family,Other,Westminster
LvZ18QjyotUZAAYZv7_vJ,Ramses and the Pharaoh’s Gold: The Exhibition,2026-07-10,12:30:00,False,London,-0.14214313,51.48187751,Neon at Battersea Power Station,-1,Miscellaneous,Family,Other,Wandsworth
LvZ18Q_xNuMIbzOZvz20e,Twist Museum - London's Home of Illusions PEAK,2026-07-10,12:45:00,False,London,-0.14319582,51.51539505,Twist Museum,-1,Miscellaneous,Family,Other,Westminster
17uYv0G65Iu_A94,Stranger Things: The First Shadow,2026-07-10,13:00:00,False,London,-0.129497,51.514387,Phoenix Theatre,-1,Arts & Theatre,Theatre,Drama,Camden
1AMZkGyGkdEauCg,Amex Presents BST Hyde Park - Pitbull - Ultimate Bar Packages,2026-07-10,13:00:00,False,London,-0.165708,51.507432,Hyde Park,-1,Music,Undefined,Undefined,Westminster
G5dzZbtrV2ODU,Bluey's Big Play - BSL + AD performance,2026-07-10,13:00:00,False,Brighton,-0.146331,50.82153,The Brighton Centre,-1,Arts & Theatre,Children's Theatre,Children's Theatre,Brighton
LvZ18Q3v-ymmrPOZvNUFv,FRAMELESS 2026,2026-07-10,13:00:00,False,London,-0.15964317,51.51366919,Marble Arch Place,-1,Miscellaneous,Undefined,Undefined,Westminster
LvZ18Q_xNuMIbzOZvz20d,Twist Museum - London's Home of Illusions PEAK,2026-07-10,13:00:00,False,London,-0.14319582,51.51539505,Twist Museum,-1,Miscellaneous,Family,Other,Westminster
LvZ18QjyotUZAAYZv7_vE,Ramses and the Pharaoh’s Gold: The Exhibition,2026-07-10,13:00:00,False,London,-0.14214313,51.48187751,Neon at Battersea Power Station,-1,Miscellaneous,Family,Other,Wandsworth
LvZ18Q_xNuMIbzOZvz207,Twist Museum - London's Home of Illusions PEAK,2026-07-10,13:15:00,False,London,-0.14319582,51.51539505,Twist Museum,-1,Miscellaneous,Family,Other,Westminster
LvZ18Q3v-ymmrPOZvNUFe,FRAMELESS 2026,2026-07-10,13:30:00,False,London,-0.15964317,51.51366919,Marble Arch Place,-1,Miscellaneous,Undefined,Undefined,Westminster
LvZ18Q_xNuMIbzOZvz20A,Twist Museum - London's Home of Illusions PEAK,2026-07-10,13:30:00,False,London,-0.14319582,51.51539505,Twist Museum,-1,Miscellaneous,Family,Other,Westminster
LvZ18QjyotUZAAYZv7_vI,Ramses and the Pharaoh’s Gold: The Exhibition,2026-07-10,13:30:00,False,London,-0.14214313,51.48187751,Neon at Battersea Power Station,-1,Miscellaneous,Family,Other,Wandsworth
Zor9uZKbZL4Ze3x1aZq,The Tiger Who Came To Tea,2026-07-10,13:30:00,False,London,-0.13128,51.50884,Theatre Royal Haymarket,-1,Arts & Theatre,Children's Theatre,Children's Theatre,Westminster
LvZ18Q_xNuMIbzOZvz20k,Twist Museum - London's Home of Illusions PEAK,2026-07-10,13:45:00,False,London,-0.14319582,51.51539505,Twist Museum,-1,Miscellaneous,Family,Other,Westminster
17GOv0G6uYlG8gA,Oran Mor Summer Panto - Big Bad Riding Hood,2026-07-10,14:00:00,False,Glasgow,-4.289157,55.87738,Oran Mor,-1,Arts & Theatre,Miscellaneous Theatre,Miscellaneous Theatre,Glasgow
1AMZkGyGkeJTygI,American Express Presents BST Hyde Park - Pitbull,2026-07-10,14:00:00,False,London,-0.165708,51.507432,Hyde Park,-1,Music,Undefined,Undefined,Westminster
1AdjZbsGkiuENAI,Harry Potter and the Cursed Child - Parts 1 & 2 Fri 14:00 & 19:00,2026-07-10,14:00:00,False,London,-0.1297073,51.5131668,Palace Theatre,1743,Arts & Theatre,Theatre,Drama,Westminster
1AgZk3eGkeMRfSG,Shakespeare's Globe - a Midsummer Night's Dream,2026-07-10,14:00:00,False,London,-0.096597,51.508111,"Globe Theatre, Shakespeare's Globe",-1,Arts & Theatre,Theatre,Comedy,Southwark
LvZ18Q3v-ymmrPOZvNUFd,FRAMELESS 2026,2026-07-10,14:00:00,False,London,-0.15964317,51.51366919,Marble Arch Place,-1,Miscellaneous,Undefined,Undefined,Westminster
LvZ18Q_xNuMIbzOZvz206,Twist Museum - London's Home of Illusions PEAK,2026-07-10,14:00:00,False,London,-0.14319582,51.51539505,Twist Museum,-1,Miscellaneous,Family,Other,Westminster
LvZ18QjyotUZAAYZv7_vt,Ramses and the Pharaoh’s Gold: The Exhibition,2026-07-10,14:00:00,False,London,-0.14214313,51.48187751,Neon at Battersea Power Station,-1,Miscellaneous,Family,Other,Wandsworth
16djZbVF7G7ncoa,Pitbull - Official Premium Ticket and Hotel Experiences,2026-07-10,14:01:00,False,London,-0.165708,51.507432,Hyde Park,-1,Music,Pop,Pop,Westminster
LvZ18Q_xNuMIbzOZvz20F,Twist Museum - London's Home of Illusions PEAK,2026-07-10,14:15:00,False,London,-0.14319582,51.51539505,Twist Museum,-1,Miscellaneous,Family,Other,Westminster
16gZkGN7sZA2k2uv,Come Alive! The Greatest Showman Circus Spectacular,2026-07-10,14:30:00,False,London,-0.19846932,51.48850056,Empress Museum,-1,Arts & Theatre,Theatre,Musical,Kensington and Chelsea
17u8v0G65I3B5ge,The Book Of Mormon,2026-07-10,14:30:00,False,London,-0.131809,51.510009,Prince of Wales Theatre,1160,Arts & Theatre,Theatre,Musical,Westminster
1AMZko0GkeX5Jv_,The Hunger Games On Stage,2026-07-10,14:30:00,False,London,-0.0134276,51.5035337,Troubadour Canary Wharf Theatre,-1,Arts & Theatre,Theatre,Drama,Tower Hamlets
LvZ18Q3v-ymmrPOZvNUF7,FRAMELESS 2026,2026-07-10,14:30:00,False,London,-0.15964317,51.51366919,Marble Arch Place,-1,Miscellaneous,Undefined,Undefined,Westminster
LvZ18Q_xNuMIbzOZvz20a,Twist Museum - London's Home of Illusions PEAK,2026-07-10,14:30:00,False,London,-0.14319582,51.51539505,Twist Museum,-1,Miscellaneous,Family,Other,Westminster
LvZ18QjyotUZAAYZv7_vn,Ramses and the Pharaoh’s Gold: The Exhibition,2026-07-10,14:30:00,False,London,-0.14214313,51.48187751,Neon at Battersea Power Station,-1,Miscellaneous,Family,Other,Wandsworth
LvZ18Q_xNuMIbzOZvz201,Twist Museum - London's Home of Illusions PEAK,2026-07-10,14:45:00,False,London,-0.14319582,51.51539505,Twist Museum,-1,Miscellaneous,Family,Other,Westminster
1AdfZbgGkBlOElE,Beetlejuice,2026-07-10,15:00:00,False,London,-0.130964,51.513763,Prince Edward Theatre,-1,Arts & Theatre,Theatre,Musical,Westminster
LvZ18Q3v-ymmrPOZvNUFA,FRAMELESS 2026,2026-07-10,15:00:00,False,London,-0.15964317,51.51366919,Marble Arch Place,-1,Miscellaneous,Undefined,Undefined,Westminster
LvZ18Q_xNuMIbzOZvz205,Twist Museum - London's Home of Illusions PEAK,2026-07-10,15:00:00,False,London,-0.14319582,51.51539505,Twist Museum,-1,Miscellaneous,Family,Other,Westminster
LvZ18QjyotUZAAYZv7_vl,Ramses and the Pharaoh’s Gold: The Exhibition,2026-07-10,15:00:00,False,London,-0.14214313,51.48187751,Neon at Battersea Power Station,-1,Miscellaneous,Family,Other,Wandsworth
LvZ18Q_xNuMIbzOZvz20G,Twist Museum - London's Home of Illusions PEAK,2026-07-10,15:15:00,False,London,-0.14319582,51.51539505,Twist Museum,-1,Miscellaneous,Family,Other,Westminster
LvZ18Q3v-ymmrPOZvNUFk,FRAMELESS 2026,2026-07-10,15:30:00,False,London,-0.15964317,51.51366919,Marble Arch Place,-1,Miscellaneous,Undefined,Undefined,Westminster
LvZ18Q_xNuMIbzOZvz20u,Twist Museum - London's Home of Illusions PEAK,2026-07-10,15:30:00,False,London,-0.14319582,51.51539505,Twist Museum,-1,Miscellaneous,Family,Other,Westminster
LvZ18Q_xNuMIbzOZvz20C,Twist Museum - London's Home of Illusions PEAK,2026-07-10,15:45:00,False,London,-0.14319582,51.51539505,Twist Museum,-1,Miscellaneous,Family,Other,Westminster
LvZ18QL6CNUlZyYZ0zK-l,90s & 00s Nation Summer Fest,2026-07-10,16:00:00,False,Hornchurch,0.1927552,51.557894,Harrow Lodge Park,-1,Music,Dance/Electronic,Club Dance,Hornchurch
LvZ18Q_xNuMIbzOZvz202,Twist Museum - London's Home of Illusions PEAK,2026-07-10,16:00:00,False,London,-0.14319582,51.51539505,Twist Museum,-1,Miscellaneous,Family,Other,Westminster
LvZ18Qo9WPCnjSZZvTs9u,Gladiators Experience,2026-07-10,16:00:00,False,Birmingham,-1.717158,52.453266,NEC,-1,Miscellaneous,Family,Other,Birmingham
LvZ18QowLd7sZdZZv3Zpl,FRAMELESS,2026-07-10,16:00:00,False,London,-0.15964317,51.51366919,Marble Arch Place,-1,Miscellaneous,Undefined,Undefined,Westminster
LvZ18Q_xNuMIbzOZvz208,Twist Museum - London's Home of Illusions PEAK,2026-07-10,16:15:00,False,London,-0.14319582,51.51539505,Twist Museum,-1,Miscellaneous,Family,Other,Westminster
LvZ18Q_xNuMIbzOZvz20o,Twist Museum - London's Home of Illusions PEAK,2026-07-10,16:30:00,False,London,-0.14319582,51.51539505,Twist Museum,-1,Miscellaneous,Family,Other,Westminster
LvZ18Qowr5haq0ZZvr4fn,FRAMELESS,2026-07-10,16:30:00,False,London,-0.15964317,51.51366919,Marble Arch Place,-1,Miscellaneous,Undefined,Undefined,Westminster
LvZ18Q_xNuMIbzOZvz203,Twist Museum - London's Home of Illusions PEAK,2026-07-10,16:45:00,False,London,-0.14319582,51.51539505,Twist Museum,-1,Miscellaneous,Family,Other,Westminster
1ANZkGkGkd1nYEZ,My Chemical Romance - Long Live The Black Parade Tour,2026-07-10,17:00:00,False,London,-0.279581,51.557807,Wembley Stadium,90000,Music,Rock,Alternative Rock,Brent
G5vHZ_dzYm1tU,Bastille  - Upgrade (does not include event ticket),2026-07-10,17:00:00,False,Cardiff,-3.182167,51.481668,Cardiff Castle,-1,Music,Rock,Pop,Cardiff
G5vHZbVxDiED0,Bastille with special guests Arthur Hill and Sofia Camara,2026-07-10,17:00:00,False,Cardiff,-3.182167,51.481668,Cardiff Castle,-1,Music,Rock,Pop,Cardiff
G5vHZbgLcwt9a,Wet Leg,2026-07-10,17:00:00,False,London,-0.13354,51.59049,Alexandra Palace Park,-1,Music,Rock,Alternative Rock,Haringey
G5vHZbgdNZbnj,In The Park Newcastle Presents Paul Weller,2026-07-10,17:00:00,False,Newcastle,-1.6148629,54.9859248,Exhibition Park,-1,Music,Rock,Pop,Newcastle
G5vHZbghJO_3c,Emeli Sande with The Absolute Orchestra,2026-07-10,17:00:00,False,Llangollen,-3.1732473,52.9728542,"Live at Llangollen, Llangollen Pavilion",-1,Music,R&B,R&B,Llangollen
LvZ18Q_xNuMIbzOZvz20K,Twist Museum - London's Home of Illusions PEAK,2026-07-10,17:00:00,False,London,-0.14319582,51.51539505,Twist Museum,-1,Miscellaneous,Family,Other,Westminster
LvZ18Qo9WPCnjSZZvTs92,Gladiators Experience,2026-07-10,17:00:00,False,Birmingham,-1.717158,52.453266,NEC,-1,Miscellaneous,Family,Other,Birmingham
LvZ18Qowr5haq0ZZvr4fl,FRAMELESS,2026-07-10,17:00:00,False,London,-0.15964317,51.51366919,Marble Arch Place,-1,Miscellaneous,Undefined,Undefined,Westminster
G5vHZbMmsip4D,Bastille - Official Ticket and Hotel Bundls,2026-07-10,17:01:00,False,Cardiff,-3.182167,51.481668,Cardiff Castle,-1,Music,Rock,Pop,Cardiff
LvZ18Q_xNuMIbzOZvz20f,Twist Museum - London's Home of Illusions PEAK,2026-07-10,17:15:00,False,London,-0.14319582,51.51539505,Twist Museum,-1,Miscellaneous,Family,Other,Westminster
1AdfZ_kGknDSfO2,David Gray,2026-07-10,17:30:00,False,Margate,1.3773769,51.3865586,Dreamland,-1,Music,Rock,Alternative Rock,Margate
G5vHZbVTj6zFy,Sounds of the City Present THE STREETS,2026-07-10,17:30:00,False,Manchester,-2.256881,53.476524,Castlefield Bowl,-1,Arts & Theatre,Miscellaneous,Miscellaneous,Manchester
LvZ18Q_xNuMIbzOZvz204,Twist Museum - London's Home of Illusions PEAK,2026-07-10,17:30:00,False,London,-0.14319582,51.51539505,Twist Museum,-1,Miscellaneous,Family,Other,Westminster
LvZ18Qo9WPCnjSZZvTs98,Gladiators Experience,2026-07-10,17:30:00,False,Birmingham,-1.717158,52.453266,NEC,-1,Miscellaneous,Family,Other,Birmingham
LvZ18Qowr5haq0ZZvr4fi,FRAMELESS,2026-07-10,17:30:00,False,London,-0.15964317,51.51366919,Marble Arch Place,-1,Miscellaneous,Undefined,Undefined,Westminster
LvZ18Q_xNuMIbzOZvz20p,Twist Museum - London's Home of Illusions PEAK,2026-07-10,17:45:00,False,London,-0.14319582,51.51539505,Twist Museum,-1,Miscellaneous,Family,Other,Westminster
1AdbZ_aGkwr0Kjc,JINKX MONSOON: Speaking of Witch - Venue Premium Tickets,2026-07-10,18:00:00,False,York,-1.073629,53.95386,York Barbican,-1,Music,Rock,Pop,York
1AdfZbVGkMbQJQO,Mouth of the Tyne Festival presents MINISTRY OF SOUND CLASSICAL,2026-07-10,18:00:00,False,Tynemouth,-1.419741,55.017666,Tynemouth Priory and Castle,-1,Music,Classical,Classical/Vocal,Tynemouth
1AdfZbVGkX060UJ,Deacon Blue,2026-07-10,18:00:00,False,Scarborough,-0.412086,54.293195,Scarborough Open Air Theatre,-1,Music,Rock,Pop,Scarborough
1AdjZ_aGkw0nK2m,Lucki - Venue Premium Tickets,2026-07-10,18:00:00,False,London,-0.283527,51.557918,OVO Arena Wembley,12500,Music,Hip-Hop/Rap,Trap,Brent
1AgZkuaGkdxCnPh,Billy Ocean with very special guest Marti Pellow,2026-07-10,18:00:00,False,Halifax,-1.85657,53.721432,The Piece Hall,-1,Music,R&B,Soul,Halifax
G5vHZ_dUSK0Sw,Summer Concerts - the Abba Reunion Tribute Show,2026-07-10,18:00:00,False,Staffordshire,-2.202796,52.964786,The Trentham Estate,-1,Music,Undefined,Undefined,Staffordshire
G5vHZ_k5as4vE,GlassJaw,2026-07-10,18:00:00,False,London,-0.142995,51.5397,Electric Ballroom,-1,Music,Rock,Alternative Rock,Camden
LvZ18Q-pKLX3pcOZ0OBgy,SOLID SOUL Fri 10 July 2026 The Jam House Birmingham,2026-07-10,18:00:00,False,Birmingham,-1.904386,52.48509613,The Jam House Birmingham,-1,Music,Pop,Pop,Birmingham
LvZ18Q2qbwutArYZlsJNv,THE FRIDAY NIGHT SHOW!,2026-07-10,18:00:00,False,London,-0.01077,51.481328,Up The Creek,-1,Arts & Theatre,Comedy,Comedy,Greenwich
LvZ18Q_xNuMIbzOZvz209,Twist Museum - London's Home of Illusions PEAK,2026-07-10,18:00:00,False,London,-0.14319582,51.51539505,Twist Museum,-1,Miscellaneous,Family,Other,Westminster
LvZ18QbGIx0SvLOZl1iCS,KEVIN MORBY,2026-07-10,18:00:00,False,Brighton,-0.138704,50.820167,"Chalk, Brighton",-1,Music,Rock,Pop,Brighton
LvZ18Qo9WPCnjSZZvTs9o,Gladiators Experience,2026-07-10,18:00:00,False,Birmingham,-1.717158,52.453266,NEC,-1,Miscellaneous,Family,Other,Birmingham
LvZ18Qowy2VsZdZZv3vCi,FRAMELESS 2026,2026-07-10,18:00:00,False,London,-0.15964317,51.51366919,Marble Arch Place,-1,Miscellaneous,Undefined,Undefined,Westminster
LvZ18QqzD5j7hHZZ0d60V,AGNOSTIC FRONT x D.R.I.,2026-07-10,18:00:00,False,London,-0.142073,51.538624,Underworld,-1,Music,Rock,Alternative Rock,Camden
LvZ18QxNGBPZeYOZvC6Lf,Alfies Soho - Live Jazz and Blues,2026-07-10,18:00:00,False,London,-0.1310873,51.5140035,Alfie's Soho,-1,Music,Jazz,Jazz,Westminster
1AgZku8GkdJ3lI7,Billy Ocean- Official Ticket and Hotel Bundls,2026-07-10,18:01:00,False,Halifax,-1.85657,53.721432,The Piece Hall,-1,Music,R&B,Soul,Halifax
1AgZkuPGkdw4HkG,Deacon Blue- Official Ticket and Hotel Bundls,2026-07-10,18:01:00,False,Scarborough,-0.412086,54.293195,Scarborough Open Air Theatre,-1,Music,Rock,Pop,Scarborough
LvZ18Q_xNuMIbzOZvz20b,Twist Museum - London's Home of Illusions PEAK,2026-07-10,18:15:00,False,London,-0.14319582,51.51539505,Twist Museum,-1,Miscellaneous,Family,Other,Westminster
1AdbZbgGkYaZrY-,Sounds of the City Present The Human League,2026-07-10,18:30:00,False,Leeds,-1.548059,53.800966,Millennium Square Leeds,-1,Music,Rock,Alternative Rock,Leeds
1AdfZ_eGkDnFMS_,Mamma Mia! The Party,2026-07-10,18:30:00,False,London,0.005519,51.501581,The O2,20000,Arts & Theatre,Theatre,Musical,Greenwich
1AdfZbgGkwwOEZG,Ludovico Einaudi,2026-07-10,18:30:00,False,London,0.005519,51.501581,The O2,20000,Arts & Theatre,Classical,Symphonic,Greenwich
LvZ18Q_xNuMIbzOZvz20_,Twist Museum - London's Home of Illusions PEAK,2026-07-10,18:30:00,False,London,-0.14319582,51.51539505,Twist Museum,-1,Miscellaneous,Family,Other,Westminster
LvZ18QhOV8mo-lOZvNsvg,Zoe Rahman Trio - Album Launch,2026-07-10,18:30:00,False,London,-0.07665,51.54879,Vortex Jazz Club,-1,Music,Folk,Folk,Hackney
LvZ18Qob5HlQ24ZZvwEZd,Gladiators Experience,2026-07-10,18:30:00,False,Birmingham,-1.717158,52.453266,NEC,-1,Miscellaneous,Family,Other,Birmingham
LvZ18Qowy2VsZdZZv3vCc,FRAMELESS 2026,2026-07-10,18:30:00,False,London,-0.15964317,51.51366919,Marble Arch Place,-1,Miscellaneous,Undefined,Undefined,Westminster
LvZ18QrbmRYs8TZv1ptka,The Temptations by Masterpiece,2026-07-10,18:30:00,False,London,-0.106126,51.534184,Soul Mama Islington,-1,Music,R&B,Soul,Islington
1AdfZbgGkMlnGwo,Ludovico Einaudi- Official Premium Ticket and Hotel Experiences,2026-07-10,18:31:00,False,London,0.005519,51.501581,The O2,20000,Arts & Theatre,Classical,Symphonic,Greenwich
17u8v0G6uJ_NpJI,CHAT NOIR!,2026-07-10,18:45:00,False,London,-0.20485809,51.4905226,The Lost Estate,-1,Arts & Theatre,Variety,Cabaret,Hammersmith and Fulham
1AdbZbVGkUnCgyg,Callum Beattie,2026-07-10,18:45:00,False,Edinburgh,-3.201479,55.94897,Edinburgh Castle Esplanade,-1,Music,Rock,Pop,Edinburgh
LvZ18Q_xNuMIbzOZvz20Q,Twist Museum - London's Home of Illusions PEAK,2026-07-10,18:45:00,False,London,-0.14319582,51.51539505,Twist Museum,-1,Miscellaneous,Family,Other,Westminster
16djZbgr4G7IUcl,My Neighbour Totoro,2026-07-10,19:00:00,False,London,-0.119645,51.51429,Gillian Lynne Theatre,1295,Arts & Theatre,Theatre,Drama,Westminster
17u8v0G65hHH63r,To Kill A Mockingbird,2026-07-10,19:00:00,False,London,-0.128249,51.511067,Wyndham's Theatre,759,Arts & Theatre,Theatre,Drama,Westminster
17u8v0G65lr_byT,Last Laugh Comedy Club,2026-07-10,19:00:00,False,Sheffield,-1.471079,53.38118,Sheffield City Hall Memorial Hall,-1,Arts & Theatre,Comedy,Comedy,Sheffield
17u8v0G6u0vuU4W,Mackenzy Mackay,2026-07-10,19:00:00,False,London,-0.129112,51.515497,The Lower Third,-1,Music,Pop,Electro Pop,Camden
17u8v0G6uMl-kO7,Belle Livingstone's 58th Street Country Club,2026-07-10,19:00:00,False,London,-0.06736413,51.47289512,Belle Livingstone's 58th Street Country Club,-1,Music,Jazz,Jazz,Southwark
17uOvxG65QcQflP,What's Love Got to do With it? - The Ultimate Tribute to Tina Turner,2026-07-10,19:00:00,False,Aberdeen,-2.105717,57.145214,Aberdeen Music Hall,-1,Music,Undefined,Undefined,Aberdeen
17uYv0G65IuPP9m,Stranger Things: The First Shadow,2026-07-10,19:00:00,False,London,-0.129497,51.514387,Phoenix Theatre,-1,Arts & Theatre,Theatre,Drama,Camden
1AMZk8MGkdvtVYF,Mojo Brookzz: I Know You F*cking Lying,2026-07-10,19:00:00,False,London,-0.130111,51.511349,Leicester Square Theatre,-1,Arts & Theatre,Comedy,Comedy,Westminster
1AMZkuJGkdOnM4q,Jools Holland and His Rhythm & Blues Orchestra,2026-07-10,19:00:00,False,High Wycombe,-0.749801,51.627968,Wycombe Swan Theatre,-1,Music,R&B,R&B,High Wycombe
1AdFZ_7Gkmwy8I2,The Spooky Men's Chorale,2026-07-10,19:00:00,False,Glasgow,-4.23494336,55.85515215,Saint Luke's,-1,Music,Folk,Indie Folk,Glasgow
1AdFZbMGkl6ao5W,Carrtoons - Restaurant,2026-07-10,19:00:00,False,London,-0.143343,51.53859,Jazz Cafe,-1,Music,R&B,R&B,Camden
1AdFZbMGkl6aoGm,CARRTOONS,2026-07-10,19:00:00,False,London,-0.143343,51.53859,Jazz Cafe,-1,Music,R&B,R&B,Camden
1AdbZ_kGkUYY4GY,December 10,2026-07-10,19:00:00,False,Edinburgh,-3.199136,55.952974,Assembly Rooms,-1,Music,Pop,Pop,Edinburgh
1AdjZ_6GkXwgeId,Young Miko,2026-07-10,19:00:00,False,London,-0.129159,51.515741,Outernet Live,-1,Music,Latin,Latin,Camden
1AdjZbSGkDNpnIf,Matilda The Musical,2026-07-10,19:00:00,False,London,-0.126407,51.51351,Cambridge Theatre,1227,Arts & Theatre,Theatre,Musical,Camden
1AwZkobGkeIrY-D,Cloudbusting - the Music of Kate Bush,2026-07-10,19:00:00,False,Glasgow,-4.289157,55.87738,Oran Mor,-1,Music,Undefined,Undefined,Glasgow
G5dzZbzTnG4t6,Breaking Benjamin,2026-07-10,19:00:00,False,Birmingham,-1.900215,52.473277,O2 Academy Birmingham,-1,Music,Rock,Alternative Rock,Birmingham
G5vHZbSeV3kWl,Rumours of Fleetwood Mac,2026-07-10,19:00:00,False,Truro,-5.049819,50.262505,Truro Hall for Cornwall,-1,Music,Undefined,Undefined,Truro
LvZ18Q0aQb9cPmkwhe06p,Summer Ceilidh,2026-07-10,19:00:00,False,Glasgow,-4.289157,55.87738,Oran Mor,-1,Music,Folk,Traditional Scottish Folk,Glasgow
LvZ18Q9NSTJhZX8ZyoM7h,Limehouse Lizzy,2026-07-10,19:00:00,False,Derby,-1.480463,52.921971,The Hairy Dog,-1,Music,Undefined,Undefined,Derby
LvZ18QKhnpwMJ5ZZy3nZU,Nik Kershaw,2026-07-10,19:00:00,False,Newcastle upon Tyne,-1.615058,54.967198,Boiler Shop,-1,Music,Rock,Pop,Newcastle upon Tyne
LvZ18Q_xNuMIbzOZvz20h,Twist Museum - London's Home of Illusions PEAK,2026-07-10,19:00:00,False,London,-0.14319582,51.51539505,Twist Museum,-1,Miscellaneous,Family,Other,Westminster
LvZ18QjA4lrXSXOvOd5rJ,Knights Foundation Presents: Southampton's Finest Talent (Charity Night),2026-07-10,19:00:00,False,Southampton,-1.4004633,50.8989811,Southampton 1865,-1,Music,Other,Other,Southampton
LvZ18QjBXgj-gLZZ0APbS,Big Deal Friday - Big Deal Comedy Club,2026-07-10,19:00:00,False,Cambridge,0.11995604,52.20653912,Town and Gown,-1,Arts & Theatre,Comedy,Comedy,Cambridge
LvZ18Qowy2VsZdZZv3vCm,FRAMELESS 2026,2026-07-10,19:00:00,False,London,-0.15964317,51.51366919,Marble Arch Place,-1,Miscellaneous,Undefined,Undefined,Westminster
Z3r9uZKbZL4Ze3x2vZdh,The Oresteia,2026-07-10,19:00:00,False,London,-0.0880061,51.4992073,Bridge Theatre,-1,Arts & Theatre,Theatre,Drama,Southwark
ZKr9uZKbZL4Ze83obZA1o,Magic Mike Live,2026-07-10,19:00:00,False,London,-0.129629,51.511196,The Theatre at the Hippodrome Casino,-1,Arts & Theatre,Miscellaneous,Miscellaneous,Westminster
Zor9uZKbZL4Zef7CLZA,Allegra,2026-07-10,19:00:00,False,London,-0.131851,51.509326,The Harold Pinter Theatre ,-1,Arts & Theatre,Theatre,Comedy,Westminster
Zor9uZKbZL4ZefdeAZb,Arcadia,2026-07-10,19:00:00,False,London,-0.127522,51.510174,Duke of Yorks Theatre,-1,Arts & Theatre,Theatre,Drama,Westminster
LvZ18Q_xNuMIbzOZvz20j,Twist Museum - London's Home of Illusions PEAK,2026-07-10,19:15:00,False,London,-0.14319582,51.51539505,Twist Museum,-1,Miscellaneous,Family,Other,Westminster
16MZkGFZEZA8aCa2,Kinky Boots,2026-07-10,19:30:00,False,London,-0.126308,51.509921,London Coliseum,2358,Arts & Theatre,Theatre,Musical,Westminster
17u8v0G65CrJwbp,Faulty Towers the Dining Experience,2026-07-10,19:30:00,False,London,-0.12395745,51.52226825,President Hotel,-1,Arts & Theatre,Theatre,Comedy,Camden
17u8v0G65IKk5gI,The Book Of Mormon,2026-07-10,19:30:00,False,London,-0.131809,51.510009,Prince of Wales Theatre,1160,Arts & Theatre,Theatre,Musical,Westminster
17u8v0G65rINKqY,Cyrano de Bergerac,2026-07-10,19:30:00,False,London,-0.1284654,51.5142805,Noel Coward Theatre,942,Arts & Theatre,Theatre,Drama,Camden
17u8vxG6GCgA7tI,Operation Mincemeat: A New Musical,2026-07-10,19:30:00,False,Hull,-0.337235,53.747574,Hull New Theatre,-1,Arts & Theatre,Theatre,Musical,Hull
17uOv0G65L3vw7Q,Sinatra the Musical,2026-07-10,19:30:00,False,London,-0.118841,51.51312,Aldwych Theatre,-1,Arts & Theatre,Theatre,Musical,Westminster
17uOv0G6GpK56em,Moulin Rouge! The Musical,2026-07-10,19:30:00,False,Liverpool,-2.978335,53.40891,Liverpool Empire Theatre,-1,Arts & Theatre,Theatre,Musical,Liverpool
17uYv0G655o9e04,Heathers The Musical,2026-07-10,19:30:00,False,London,-0.159855,51.51329,The Arts at Marble Arch,-1,Arts & Theatre,Theatre,Musical,Westminster
17uYv0G65CaU-eD,Inala,2026-07-10,19:30:00,False,London,-0.13822703,51.51676177,House of Sisters Grimm,-1,Arts & Theatre,Miscellaneous Theatre,Miscellaneous Theatre,Westminster
17uYvxG62LHjdYZ,The James Bond Spectacular,2026-07-10,19:30:00,False,Bath,-2.3605,51.378645,Bath Forum,-1,Music,Rock,Pop,Bath
1AMZkGUGkdB_nI1,Phantom of the Opera,2026-07-10,19:30:00,False,London,-0.132044,51.508133,His Majesty's Theatre,1216,Arts & Theatre,Theatre,Musical,Westminster
1AMZko0GkeXbJvg,The Hunger Games On Stage,2026-07-10,19:30:00,False,London,-0.0134276,51.5035337,Troubadour Canary Wharf Theatre,-1,Arts & Theatre,Theatre,Drama,Tower Hamlets
1AMZkuJGkeVXP_P,AVENUE Q,2026-07-10,19:30:00,False,London,-0.126119,51.516285,Shaftesbury Theatre,-1,Arts & Theatre,Theatre,Musical,Camden
1AMZkufGkd1eI2j,The Producers,2026-07-10,19:30:00,False,London,-0.127819,51.509954,Garrick Theatre,-1,Arts & Theatre,Theatre,Musical,Westminster
1AMZkugGkdRNtni,The Proclaimers,2026-07-10,19:30:00,False,Peterborough,-0.283558,52.589314,The Cresset,-1,Music,Rock,Pop,Peterborough
1AUZkGyGkeTk_zO,Wicked,2026-07-10,19:30:00,False,London,-0.142691,51.495785,Apollo Victoria Theatre,2328,Arts & Theatre,Theatre,Musical,Westminster
1AdbZ_aGkStAFOJ,Jinkx Monsoon: Speaking of Witch,2026-07-10,19:30:00,False,York,-1.073629,53.95386,York Barbican,-1,Arts & Theatre,Performance Art,Performance Art,York
1AdbZbSGkDAIy6y,The Devil Wears Prada,2026-07-10,19:30:00,False,London,-0.129679,51.516971,Dominion Theatre,2083,Arts & Theatre,Theatre,Musical,Camden
1AdfZ_eGkTIpEj_,Shalamar: The Gold Tour - A Fifty Year Celebration,2026-07-10,19:30:00,False,Colchester,0.904506,51.897127,Charter Hall,-1,Music,Rock,Pop,Colchester
1AdfZbgGkBlcMYd,Beetlejuice,2026-07-10,19:30:00,False,London,-0.130964,51.513763,Prince Edward Theatre,-1,Arts & Theatre,Theatre,Musical,Westminster
1AdjZbIGkRBU7Yl,The Play That Goes Wrong,2026-07-10,19:30:00,False,London,-0.119732,51.512118,Duchess Theatre,-1,Arts & Theatre,Theatre,Comedy,Westminster
1AdjZbUGkzCGnAG,Disney's Hercules,2026-07-10,19:30:00,False,London,-0.120258,51.513008,Theatre Royal Drury Lane,2220,Arts & Theatre,Theatre,Musical,Westminster
1AgZk3eGkd1XUbe,Shakespeare's Globe - Much Ado About Nothing,2026-07-10,19:30:00,False,London,-0.096597,51.508111,"Globe Theatre, Shakespeare's Globe",-1,Arts & Theatre,Theatre,Drama,Southwark
1AgZkoSGkdhNkr8,Cambridge Comedy Garden: Dylan Moran & Fin Taylor,2026-07-10,19:30:00,False,Cambridge,0.126833,52.20048,Parker's Piece Cambridge,-1,Arts & Theatre,Comedy,Comedy,Cambridge
1AgZkoaGketlVjt,The Boy Who Harnessed The Wind,2026-07-10,19:30:00,False,London,-0.130436,51.515607,sohoplace,-1,Arts & Theatre,Theatre,Drama,Westminster
1adfZbwGKfgZd2C2,Come Alive! The Greatest Showman Circus Spectacular,2026-07-10,19:30:00,False,London,-0.19846932,51.48850056,Empress Museum,-1,Arts & Theatre,Theatre,Musical,Kensington and Chelsea
1ku8vNuNGA2ZC-6,Oliver!,2026-07-10,19:30:00,False,London,-0.13324,51.512019,Gielgud Theatre,986,Arts & Theatre,Theatre,Musical,Westminster
G5vHZbw9jfVD5,Witness for the Prosecution,2026-07-10,19:30:00,False,London,-0.119252,51.50282,County Hall,-1,Arts & Theatre,Theatre,Drama,Lambeth
LvZ18Q8cbi_zn2OZvxVti,The Evolution Of Magic,2026-07-10,19:30:00,False,Blackpool,-3.053354,53.792539,Horseshoe Showbar,-1,Arts & Theatre,Magic & Illusion,Magic,Blackpool
LvZ18Q8f8XNLOm8ZlVSP1,20 Dollar Wedding - CANCELLED,2026-07-10,19:30:00,False,Newcastle Upon Tyne,-1.59238,54.974933,The Cluny,-1,Music,Folk,Americana,Newcastle Upon Tyne
LvZ18Q9uop5zF7ZZYCqKJ,Noasis - Hertford Corn Exchange - Friday 10 July 2026,2026-07-10,19:30:00,False,Hertford,,,Hertford Corn Exchange,-1,Music,Undefined,Undefined,Hertford
LvZ18QLuGflZJLOvqA4s0,The Music of The Lord of The Rings. Tribute to Howard Shore,2026-07-10,19:30:00,False,Bolton,-2.42360783,53.57950789,Bolton Parish Church (St Peter),-1,Arts & Theatre,Classical,Classical/Vocal,Bolton
LvZ18QO6m1d7MjZZJ3hhf,King Tut's Summer Nights Presents: Close Control,2026-07-10,19:30:00,False,Glasgow,-4.265037,55.862637,King Tuts Wah Wah Hut,-1,Music,Rock,Pop,Glasgow
LvZ18QQ8uzjyGrZZ0gNY9,Paradise Sins + SoulSwitch,2026-07-10,19:30:00,False,Birmingham,-1.912465,52.480185,Birmingham Flapper,-1,Music,Metal,Metal,Birmingham
LvZ18QQhVzALw-OZisfxm,Remembering John Holt,2026-07-10,19:30:00,False,London,-0.135345,51.516225,100 Club,-1,Music,Reggae,Reggae,Westminster
LvZ18Q_xNuMIbzOZvz20q,Twist Museum - London's Home of Illusions PEAK,2026-07-10,19:30:00,False,London,-0.14319582,51.51539505,Twist Museum,-1,Miscellaneous,Family,Other,Westminster
LvZ18Qh4fhPQRO8Z0wvph,The Best in Stand Up - Friday 10th July,2026-07-10,19:30:00,False,London,-0.13233095,51.50998051,The Comedy Store,-1,Arts & Theatre,Comedy,Comedy,Westminster
LvZ18QjQGDVApvZv-69kf,Just the Tonic Comedy Club - Leamington Spa - Ross Noble Special,2026-07-10,19:30:00,False,Leamington Spa,-1.53369,52.285603,Leamington Spa Assembly,-1,Arts & Theatre,Comedy,Comedy,Leamington Spa
LvZ18Qowy2VsZdZZv3vCR,FRAMELESS 2026,2026-07-10,19:30:00,False,London,-0.15964317,51.51366919,Marble Arch Place,-1,Miscellaneous,Undefined,Undefined,Westminster
LvZ18Qqyejr3unYv1Gf_K,Stiff Little Fingers,2026-07-10,19:30:00,False,Norwich ,1.296628,52.638032,Epic Studios,-1,Music,Rock,Pop,Norwich 
LvZ18_PvbhlZPKv9I8T9h,Alexandra Leaving,2026-07-10,19:30:00,False,Birmingham,-1.89772,52.47634,Sunflower Lounge,-1,Music,Alternative,Alternative Rock,Birmingham
Z3r9uZKbZL4Ze33L-Zdo,Grace Pervades,2026-07-10,19:30:00,False,London,-0.13128,51.50884,Theatre Royal Haymarket,-1,Arts & Theatre,Theatre,Drama,Westminster
Z3r9uZKbZL4Ze33ONZ6x,"Oh, Mary!",2026-07-10,19:30:00,False,London,-0.12651,51.5048,Trafalgar Theatre,-1,Arts & Theatre,Theatre,Comedy,Westminster
Z3r9uZKbZL4Ze3OLLZeQ,Dark of the Moon,2026-07-10,19:30:00,False,London,-0.124122,51.508087,Charing Cross Theatre,265,Arts & Theatre,Theatre,Musical,Westminster
Z3r9uZKbZL4Ze3bd5Zd6,1536,2026-07-10,19:30:00,False,London,-0.128026,51.513006,Ambassadors Theatre,444,Arts & Theatre,Theatre,Drama,Camden
Z3r9uZKbZL4Ze3jaNZeQ,High Society,2026-07-10,19:30:00,False,London,-0.093919,51.519812,Barbican Theatre,1166,Arts & Theatre,Theatre,Musical,City of London
Z3r9uZKbZL4Ze3x2dZeA,Glengarry Glen Ross,2026-07-10,19:30:00,False,London,-0.1090443,51.5019366,The Old Vic,1067,Arts & Theatre,Theatre,Drama,Lambeth
Z3r9uZKbZL4Zef7CNZeN,The Mousetrap,2026-07-10,19:30:00,False,London,-0.127672,51.512848,St Martin's Theatre,-1,Arts & Theatre,Theatre,Drama,Camden
ZKr9uZKbZL4Ze310LZeej,Cabaret,2026-07-10,19:30:00,False,London,-0.123719,51.506975,Playhouse Theatre,865,Arts & Theatre,Theatre,Musical,Westminster
ZKr9uZKbZL4Ze3A4LZeka,Mamma Mia!,2026-07-10,19:30:00,False,London,-0.119423,51.511933,Novello Theatre,-1,Arts & Theatre,Theatre,Musical,Westminster
ZKr9uZKbZL4Ze3eNbZek-,Hamilton,2026-07-10,19:30:00,False,London,-0.142382,51.497012,Victoria Palace Theatre,-1,Arts & Theatre,Theatre,Musical,Westminster
ZKr9uZKbZL4Ze8-4-Zda1,Hadestown,2026-07-10,19:30:00,False,London,-0.133935,51.511248,Lyric Theatre,-1,Arts & Theatre,Theatre,Musical,Westminster
ZKr9uZKbZL4ZeCOjfZk7-,Moulin Rouge! The Musical,2026-07-10,19:30:00,False,London,-0.1353998,51.5110543,Piccadilly Theatre,-1,Arts & Theatre,Theatre,Musical,Westminster
ZKr9uZKbZL4ZeCj6jZkFv,Disney's The Lion King,2026-07-10,19:30:00,False,London,-0.120008,51.511718,Lyceum Theatre,2100,Arts & Theatre,Theatre,Musical,Westminster
ZKr9uZKbZL4Zeo-b6ZeAO,Les Misérables,2026-07-10,19:30:00,False,London,-0.133106,51.512116,Sondheim Theatre,-1,Arts & Theatre,Theatre,Musical,Westminster
ZKr9uZKbZL4ZeorGbZear,Titanique,2026-07-10,19:30:00,False,London,-0.133724,51.509707,Criterion Theatre,-1,Arts & Theatre,Theatre,Musical,Westminster
Zor9uZKbZL4Ze3-5oZa,-320°F,2026-07-10,19:30:00,False,London,-0.10626,51.529419,Sadler's Wells,-1,Arts & Theatre,Dance,Ballet,Islington
Zor9uZKbZL4Ze38NdZQ,Relics,2026-07-10,19:30:00,False,London,-0.226795,51.492895,Lyric Theatre Hammersmith,-1,Arts & Theatre,Theatre,Drama,Hammersmith and Fulham
Zor9uZKbZL4Ze3x2vZ5,The Oresteia,2026-07-10,19:30:00,False,London,-0.0880061,51.4992073,Bridge Theatre,-1,Arts & Theatre,Theatre,Drama,Southwark
Zor9uZKbZL4Zefe5NZ-,Hot Mess: A New Musical,2026-07-10,19:30:00,False,London,-0.1421127,51.4987242,The Other Palace,-1,Arts & Theatre,Theatre,Musical,Westminster
1AgZkCKGkewAaYe,ABBA Voyage,2026-07-10,19:45:00,False,London,-0.01362306,51.53327366,ABBA Arena,-1,Music,Pop,Pop,Newham
1agZk8MuK3fZe5A,Abba Voyage - VIP Premium Package,2026-07-10,19:45:00,False,London,-0.01362306,51.53327366,ABBA Arena,-1,Music,Pop,Pop,Newham
LvZ18Q_xNuMIbzOZvz20r,Twist Museum - London's Home of Illusions PEAK,2026-07-10,19:45:00,False,London,-0.14319582,51.51539505,Twist Museum,-1,Miscellaneous,Family,Other,Westminster
17GOv0G659o_8Y2,Blank Cheque + No Rest for the Spacemen + Us Lot,2026-07-10,20:00:00,False,London,-0.19197,51.488695,The Troubadour,-1,Music,Rock,Pop,Kensington and Chelsea
1ku8v0QbGACesSA,Swamplesque,2026-07-10,20:00:00,False,London,-0.02002133,51.58613733,Soho Theatre Walthamstow,-1,Arts & Theatre,Variety,Cabaret,Waltham Forest
LvZ18Q_xNuMIbzOZvz20L,Twist Museum - London's Home of Illusions PEAK,2026-07-10,20:00:00,False,London,-0.14319582,51.51539505,Twist Museum,-1,Miscellaneous,Family,Other,Westminster
LvZ18Qowy2VsZdZZv3vCY,FRAMELESS 2026,2026-07-10,20:00:00,False,London,-0.15964317,51.51366919,Marble Arch Place,-1,Miscellaneous,Undefined,Undefined,Westminster
LvZ18QxNGBPZeYOZvC6L4,Alfies Soho - Live Jazz and Blues,2026-07-10,20:00:00,False,London,-0.1310873,51.5140035,Alfie's Soho,-1,Music,Jazz,Jazz,Westminster
LvZ18QxNe1aKvNZZv7Zlk,Soho Sports Night - World Cup Special,2026-07-10,20:00:00,False,London,-0.1342534,51.5111721,Jack Solomons Club,-1,Music,Jazz,Jazz,Westminster
LvZ18QxntdUewpOZ0jTLd,THE HOTKNIVES + SUPPORT,2026-07-10,20:00:00,False,Brighton,-0.13936,50.82829,The Prince Albert,-1,Music,Rock,Pop,Brighton
Z3r9uZKbZL4Ze3OppZev,The Truth,2026-07-10,20:00:00,False,London,-0.133935,51.511248,Apollo Theatre,-1,Arts & Theatre,Theatre,Drama,Westminster
ZKr9uZKbZL4ZeCNuaZ6A8,SIX The Musical,2026-07-10,20:00:00,False,London,-0.12265,51.510546,Vaudeville Theatre,-1,Arts & Theatre,Theatre,Musical,Westminster
1AwZkoPGkdAAYBl,Mainly Madness,2026-07-10,20:30:00,False,Southampton,-1.383409,50.932847,The Brook,-1,Music,Rock,Pop,Southampton
LvZ18QCS5y0Bw6OZvv2f3,"International Stand Up Comedy, Covent Garden",2026-07-10,20:30:00,False,London,-0.126866,51.5137413,Comedy Carnival Covent Garden,-1,Arts & Theatre,Comedy,Comedy,Camden
LvZ18QLFwxG4frYvqhUZr,Friday Comedy Club London | Covent Garden,2026-07-10,20:30:00,False,London,-0.126866,51.5137413,Comedy Carnival Covent Garden,-1,Arts & Theatre,Comedy,Comedy,Camden
LvZ18QhOV8mo-lOZvNsvU,Zoe Rahman Trio - Album Launch,2026-07-10,20:30:00,False,London,-0.07665,51.54879,Vortex Jazz Club,-1,Music,Folk,Folk,Hackney
LvZ18Qowy2VsZdZZv3vCs,FRAMELESS 2026,2026-07-10,20:30:00,False,London,-0.15964317,51.51366919,Marble Arch Place,-1,Miscellaneous,Undefined,Undefined,Westminster
LvZ18Qx5wwKR5MYZ0WKJW,Boney M feat Maizie Williams,2026-07-10,21:00:00,False,London,-0.022271,51.505252,"Boisdale, Canary Wharf",-1,Music,Rock,Pop,Tower Hamlets
17uYv0G65CaU-eW,Inala,2026-07-10,21:30:00,False,London,-0.13822703,51.51676177,House of Sisters Grimm,-1,Arts & Theatre,Miscellaneous Theatre,Miscellaneous Theatre,Westminster
17uYv0G6uB-49GS,Mojo Brookzz: I Know You F*cking Lying,2026-07-10,21:30:00,False,London,-0.130111,51.511349,Leicester Square Theatre,-1,Arts & Theatre,Comedy,Comedy,Westminster
1AdjZ_6GklKvfrt,Gary Owen: No Hard Feelings,2026-07-10,21:30:00,False,London,-0.130111,51.511349,Leicester Square Theatre,-1,Arts & Theatre,Comedy,Comedy,Westminster
ZKr9uZKbZL4Ze83obZA13,Magic Mike Live,2026-07-10,21:30:00,False,London,-0.129629,51.511196,The Theatre at the Hippodrome Casino,-1,Arts & Theatre,Miscellaneous,Miscellaneous,Westminster
LvZ18QqL4Ffk1eOvqyHPh,"BADSISTA, Anita B Queen, DJ Travella",2026-07-10,22:30:00,False,London,-0.143343,51.53859,Jazz Cafe,-1,Music,Dance/Electronic,Dance/Electronic,Camden
LvZ18Q_YEp3eVSYZv838p,Twist Museum - London's Home of Illusions PEAK,2026-07-10,23:00:00,False,London,-0.14319582,51.51539505,Twist Museum,-1,Miscellaneous,Family,Other,Westminster
LvZ18QjyotDiV-OZvQM-2,Ramses and the Pharaoh’s Gold: The Exhibition,2026-07-11,09:00:00,False,London,-0.14214313,51.48187751,Neon at Battersea Power Station,-1,Miscellaneous,Family,Other,Wandsworth
LvZ18Qo9WPCnjSZZvTs93,Gladiators Experience,2026-07-11,09:00:00,False,Birmingham,-1.717158,52.453266,NEC,-1,Miscellaneous,Family,Other,Birmingham
1AdfZ_6GkTNX1kT,Sea Life Birmingham - Standard Entry,2026-07-11,09:30:00,False,Birmingham,-1.91332064,52.4790525,National SEA LIFE Centre Birmingham,-1,Miscellaneous,Family,Other,Birmingham
LvZ18QjyotDiV-OZvQM-8,Ramses and the Pharaoh’s Gold: The Exhibition,2026-07-11,09:30:00,False,London,-0.14214313,51.48187751,Neon at Battersea Power Station,-1,Miscellaneous,Family,Other,Wandsworth
17uOv0G65nts3ID,Chessington World of Adventures - 1 Day Entry,2026-07-11,10:00:00,False,Surrey,-0.31189,51.35503,Chessington World of Adventures,-1,Miscellaneous,Family,Other,Surrey
17uOv0G6CLCjVee,London Eye - Standard Experience,2026-07-11,10:00:00,False,London,-0.11735,51.500992,The London Eye,-1,Miscellaneous,Family,Other,Lambeth
17uOv0G6GE5CPU7,Madame Tussauds London - Standard Entry,2026-07-11,10:00:00,False,London,-0.15526,51.52248,Madame Tussauds London,-1,Miscellaneous,Family,Other,Westminster
17uOv0G6uh2uavf,London Dungeon - Standard Entry,2026-07-11,10:00:00,False,London,-0.11735,51.500992,The London Dungeon,-1,Miscellaneous,Family,Other,Lambeth
1AMZk3aGkdl1NDM,Blackpool Sandcastle Waterpark,2026-07-11,10:00:00,False,Blackpool,-3.05751757,53.79413438,Sandcastle Waterpark,-1,Miscellaneous,Family,Other,Blackpool
1AUZk8YGkd7tpnz,Thorpe Park Resort - One Day Entry,2026-07-11,10:00:00,False,Chertsey,-0.50856,51.40752,Thorpe Park,-1,Miscellaneous,Family,Other,Chertsey
1AdbZ_6GkBAQ3dP,Sea Life Blackpool - Standard Entry,2026-07-11,10:00:00,False,Blackpool,-3.05507,53.81274,SEA LIFE Blackpool,-1,Miscellaneous,Family,Other,Blackpool
1AdbZ_FGkl3v6vy,Madame Tussauds Blackpool - Standard Entry,2026-07-11,10:00:00,False,Blackpool,-3.05511829,53.81207924,Madame Tussauds Blackpool,-1,Miscellaneous,Family,Other,Blackpool
1AdjZ_6GkM3zxrD,Sea Life Manchester - Standard Entry,2026-07-11,10:00:00,False,Manchester,-2.34235349,53.46686792,SEA LIFE Manchester,-1,Miscellaneous,Family,Other,Manchester
1FuYv0jYbpZ72aAd,Sea Life Brighton - Standard Admission,2026-07-11,10:00:00,False,Brighton,-0.13577386,50.81962932,SEA LIFE Brighton,-1,Miscellaneous,Family,Other,Brighton
1kuYv0udGA28Eqq,Legoland Windsor - Daily Entry,2026-07-11,10:00:00,False,Windsor,-0.64988,51.459099,Legoland Windsor,-1,Miscellaneous,Undefined,Undefined,Windsor
G5dzZbn6hGw5v,Bluey's Big Play,2026-07-11,10:00:00,False,Brighton,-0.146331,50.82153,The Brighton Centre,-1,Arts & Theatre,Children's Theatre,Children's Theatre,Brighton
G5vHZ_7FhUbQE,Warwick Castle - Daily Entry,2026-07-11,10:00:00,False,Warwick,-1.585766,52.280585,Warwick Castle,-1,Miscellaneous,Community/Civic,Community/Civic,Warwick
G5vHZ_GiVbDkf,Sea Life London - Standard Entry,2026-07-11,10:00:00,False,London,-0.119252,51.50282,County Hall,-1,Miscellaneous,Family,Other,Lambeth
G5vHZbVHnxQuT,Alton Towers Resort - One Day Entry,2026-07-11,10:00:00,False,Alton,-1.888653,52.988319,Alton Towers,-1,Miscellaneous,Family,Other,Alton
LvZ18Q_xNuMIbzOZvz20O,Twist Museum - London's Home of Illusions PEAK,2026-07-11,10:00:00,False,London,-0.14319582,51.51539505,Twist Museum,-1,Miscellaneous,Family,Other,Westminster
LvZ18QjyotUZAAYZv7_vm,Ramses and the Pharaoh’s Gold: The Exhibition,2026-07-11,10:00:00,False,London,-0.14214313,51.48187751,Neon at Battersea Power Station,-1,Miscellaneous,Family,Other,Wandsworth
LvZ18Qo9WPCnjSZZvTs9K,Gladiators Experience,2026-07-11,10:00:00,False,Birmingham,-1.717158,52.453266,NEC,-1,Miscellaneous,Family,Other,Birmingham
LvZ18QowMgH3F8YZvjYj2,FRAMELESS 2026,2026-07-11,10:00:00,False,London,-0.15964317,51.51366919,Marble Arch Place,-1,Miscellaneous,Undefined,Undefined,Westminster
LvZ18Qx5ORZj--YZvnmcb,Newcastle Beyond Van Gogh - Flexi,2026-07-11,10:00:00,False,Newcastle Upon Tyne,-1.623338,54.963809,Utilita Arena Newcastle,11400,Arts & Theatre,Fine Art,Fine Art,Newcastle Upon Tyne
LvZ18Qx5OqpcVtYZvva-C,Newcastle Beyond Van Gogh,2026-07-11,10:00:00,False,Newcastle Upon Tyne,-1.623338,54.963809,Utilita Arena Newcastle,11400,Arts & Theatre,Fine Art,Fine Art,Newcastle Upon Tyne
LvZ18Q_xNuMIbzOZvz20-,Twist Museum - London's Home of Illusions PEAK,2026-07-11,10:15:00,False,London,-0.14319582,51.51539505,Twist Museum,-1,Miscellaneous,Family,Other,Westminster
LvZ18Q_xNuMIbzOZvz20x,Twist Museum - London's Home of Illusions PEAK,2026-07-11,10:30:00,False,London,-0.14319582,51.51539505,Twist Museum,-1,Miscellaneous,Family,Other,Westminster
LvZ18QjyotUZAAYZv7_vR,Ramses and the Pharaoh’s Gold: The Exhibition,2026-07-11,10:30:00,False,London,-0.14214313,51.48187751,Neon at Battersea Power Station,-1,Miscellaneous,Family,Other,Wandsworth
LvZ18Qo9WPCnjSZZvTs9f,Gladiators Experience,2026-07-11,10:30:00,False,Birmingham,-1.717158,52.453266,NEC,-1,Miscellaneous,Family,Other,Birmingham
LvZ18QowMgH3F8YZvjYj8,FRAMELESS 2026,2026-07-11,10:30:00,False,London,-0.15964317,51.51366919,Marble Arch Place,-1,Miscellaneous,Undefined,Undefined,Westminster
LvZ18Qx5OqpcVtYZvva-2,Newcastle Beyond Van Gogh,2026-07-11,10:30:00,False,Newcastle Upon Tyne,-1.623338,54.963809,Utilita Arena Newcastle,11400,Arts & Theatre,Fine Art,Fine Art,Newcastle Upon Tyne
Zor9uZKbZL4Ze3x1aZr,The Tiger Who Came To Tea,2026-07-11,10:30:00,False,London,-0.13128,51.50884,Theatre Royal Haymarket,-1,Arts & Theatre,Children's Theatre,Children's Theatre,Westminster
LvZ18Q_xNuMIbzOZvz20N,Twist Museum - London's Home of Illusions PEAK,2026-07-11,10:45:00,False,London,-0.14319582,51.51539505,Twist Museum,-1,Miscellaneous,Family,Other,Westminster
1AdfZbgGkTruG3I,Racing to Zero Summer Mile Family Raceday,2026-07-11,11:00:00,False,Ascot,-0.67942033,51.41231419,Ascot Racecourse,-1,Sports,Equestrian,Horse Racing,Ascot
G5vHZbRBbBovA,Lost Minds Festival 2026 Payment Plan,2026-07-11,11:00:00,False,Newcastle,-1.6148629,54.9859248,Exhibition Park,-1,Music,Pop,Electro Pop,Newcastle
G5vHZbRE2vvoV,Lost Minds Festival 2026,2026-07-11,11:00:00,False,Newcastle,-1.6148629,54.9859248,Exhibition Park,-1,Music,Pop,Electro Pop,Newcastle
LvZ18QKADMbMQ08Zv2JWz,Guided Walks of the Old Course,2026-07-11,11:00:00,False,St Andrews,-2.808659,56.345632,St Andrews Links Clubhouse,-1,Sports,Miscellaneous,Miscellaneous,St Andrews
LvZ18Q_xNuMIbzOZvz200,Twist Museum - London's Home of Illusions PEAK,2026-07-11,11:00:00,False,London,-0.14319582,51.51539505,Twist Museum,-1,Miscellaneous,Family,Other,Westminster
LvZ18QjyotUZAAYZv7_vY,Ramses and the Pharaoh’s Gold: The Exhibition,2026-07-11,11:00:00,False,London,-0.14214313,51.48187751,Neon at Battersea Power Station,-1,Miscellaneous,Family,Other,Wandsworth
LvZ18Qo9WPCnjSZZvTs94,Gladiators Experience,2026-07-11,11:00:00,False,Birmingham,-1.717158,52.453266,NEC,-1,Miscellaneous,Family,Other,Birmingham
LvZ18QowMgH3F8YZvjYjo,FRAMELESS 2026,2026-07-11,11:00:00,False,London,-0.15964317,51.51366919,Marble Arch Place,-1,Miscellaneous,Undefined,Undefined,Westminster
LvZ18Qx5OqpcVtYZvva-8,Newcastle Beyond Van Gogh,2026-07-11,11:00:00,False,Newcastle Upon Tyne,-1.623338,54.963809,Utilita Arena Newcastle,11400,Arts & Theatre,Fine Art,Fine Art,Newcastle Upon Tyne
LvZ18Q_xNuMIbzOZvz20P,Twist Museum - London's Home of Illusions PEAK,2026-07-11,11:15:00,False,London,-0.14319582,51.51539505,Twist Museum,-1,Miscellaneous,Family,Other,Westminster
LvZ18Q_xNuMIbzOZvz20J,Twist Museum - London's Home of Illusions PEAK,2026-07-11,11:30:00,False,London,-0.14319582,51.51539505,Twist Museum,-1,Miscellaneous,Family,Other,Westminster
LvZ18QjyotUZAAYZv7_vs,Ramses and the Pharaoh’s Gold: The Exhibition,2026-07-11,11:30:00,False,London,-0.14214313,51.48187751,Neon at Battersea Power Station,-1,Miscellaneous,Family,Other,Wandsworth
LvZ18Qo9WPCnjSZZvTs9p,Gladiators Experience,2026-07-11,11:30:00,False,Birmingham,-1.717158,52.453266,NEC,-1,Miscellaneous,Family,Other,Birmingham
LvZ18QowMgH3F8YZvjYj3,FRAMELESS 2026,2026-07-11,11:30:00,False,London,-0.15964317,51.51366919,Marble Arch Place,-1,Miscellaneous,Undefined,Undefined,Westminster
LvZ18Qx5OqpcVtYZvva-o,Newcastle Beyond Van Gogh,2026-07-11,11:30:00,False,Newcastle Upon Tyne,-1.623338,54.963809,Utilita Arena Newcastle,11400,Arts & Theatre,Fine Art,Fine Art,Newcastle Upon Tyne
LvZ18Q_xNuMIbzOZvz20E,Twist Museum - London's Home of Illusions PEAK,2026-07-11,11:45:00,False,London,-0.14319582,51.51539505,Twist Museum,-1,Miscellaneous,Family,Other,Westminster
17GOv0G6uYl58Vq,Oran Mor Summer Panto - Big Bad Riding Hood,2026-07-11,12:00:00,False,Glasgow,-4.289157,55.87738,Oran Mor,-1,Arts & Theatre,Miscellaneous Theatre,Miscellaneous Theatre,Glasgow
1AMZkCvGke03zh7,Saturday Day - Wireless 2026,2026-07-11,12:00:00,False,London,-0.105881,51.564635,Finsbury Park,-1,Music,Undefined,Undefined,Islington
1AdfZ_eGkDn49Sl,Mamma Mia! The Party,2026-07-11,12:00:00,False,London,0.005519,51.501581,The O2,20000,Arts & Theatre,Theatre,Musical,Greenwich
LvZ18Q9RcjVLBYZZ0J5nC,Boogietown 2026,2026-07-11,12:00:00,False,Walton-on-Thames,-0.394981,51.403308,Apps Court Farm,-1,Music,R&B,R&B,Walton-on-Thames
LvZ18QKADMbMQ08Zv2JWy,Guided Walks of the Old Course,2026-07-11,12:00:00,False,St Andrews,-2.808659,56.345632,St Andrews Links Clubhouse,-1,Sports,Miscellaneous,Miscellaneous,St Andrews
LvZ18Q_xNuMIbzOZvz20I,Twist Museum - London's Home of Illusions PEAK,2026-07-11,12:00:00,False,London,-0.14319582,51.51539505,Twist Museum,-1,Miscellaneous,Family,Other,Westminster
LvZ18QjyotUZAAYZv7_vw,Ramses and the Pharaoh’s Gold: The Exhibition,2026-07-11,12:00:00,False,London,-0.14214313,51.48187751,Neon at Battersea Power Station,-1,Miscellaneous,Family,Other,Wandsworth
LvZ18Qo9WPCnjSZZvTs99,Gladiators Experience,2026-07-11,12:00:00,False,Birmingham,-1.717158,52.453266,NEC,-1,Miscellaneous,Family,Other,Birmingham
LvZ18QowMgH3F8YZvjYjK,FRAMELESS 2026,2026-07-11,12:00:00,False,London,-0.15964317,51.51366919,Marble Arch Place,-1,Miscellaneous,Undefined,Undefined,Westminster
LvZ18QqzT7Dg6MZvqS5SO,F&NMusic Present's R&B Karaoke Brunch Feat Versions,2026-07-11,12:00:00,False,London,-0.106126,51.534184,Soul Mama Islington,-1,Music,R&B,R&B,Islington
LvZ18Qx5OqpcVtYZvva-3,Newcastle Beyond Van Gogh,2026-07-11,12:00:00,False,Newcastle Upon Tyne,-1.623338,54.963809,Utilita Arena Newcastle,11400,Arts & Theatre,Fine Art,Fine Art,Newcastle Upon Tyne
LvZ18Q_xNuMIbzOZvz20t,Twist Museum - London's Home of Illusions PEAK,2026-07-11,12:15:00,False,London,-0.14319582,51.51539505,Twist Museum,-1,Miscellaneous,Family,Other,Westminster
LvZ18Q_xNuMIbzOZvz20n,Twist Museum - London's Home of Illusions PEAK,2026-07-11,12:30:00,False,London,-0.14319582,51.51539505,Twist Museum,-1,Miscellaneous,Family,Other,Westminster
LvZ18Qb93a-3Bn8Zlu5Ue,Rapid Aye Movement,2026-07-11,12:30:00,False,"Newcastle upon Tyne, NE1 2PQ",-1.59238,54.974933,Cluny 2,-1,Music,Rock,Rock,"Newcastle upon Tyne, NE1 2PQ"
LvZ18Qj1kRInnM8Z0Agsf,The Saturday Brunch Club,2026-07-11,12:30:00,False,London,-0.022271,51.505252,"Boisdale, Canary Wharf",-1,Miscellaneous,Food & Drink,Food & Drink,Tower Hamlets
LvZ18QjyotUZAAYZv7_vS,Ramses and the Pharaoh’s Gold: The Exhibition,2026-07-11,12:30:00,False,London,-0.14214313,51.48187751,Neon at Battersea Power Station,-1,Miscellaneous,Family,Other,Wandsworth
LvZ18Qo9WPCnjSZZvTs9b,Gladiators Experience,2026-07-11,12:30:00,False,Birmingham,-1.717158,52.453266,NEC,-1,Miscellaneous,Family,Other,Birmingham
LvZ18QowMgH3F8YZvjYjf,FRAMELESS 2026,2026-07-11,12:30:00,False,London,-0.15964317,51.51366919,Marble Arch Place,-1,Miscellaneous,Undefined,Undefined,Westminster
LvZ18Qx5OqpcVtYZvva-K,Newcastle Beyond Van Gogh,2026-07-11,12:30:00,False,Newcastle Upon Tyne,-1.623338,54.963809,Utilita Arena Newcastle,11400,Arts & Theatre,Fine Art,Fine Art,Newcastle Upon Tyne
17u8v0G6uJ_skiO,CHAT NOIR!,2026-07-11,12:45:00,False,London,-0.20485809,51.4905226,The Lost Estate,-1,Arts & Theatre,Variety,Cabaret,Hammersmith and Fulham
LvZ18Q_xNuMIbzOZvz20l,Twist Museum - London's Home of Illusions PEAK,2026-07-11,12:45:00,False,London,-0.14319582,51.51539505,Twist Museum,-1,Miscellaneous,Family,Other,Westminster
17u8v0G6uMlRpNH,Belle Livingstone's 58th Street Country Club,2026-07-11,13:00:00,False,London,-0.06736413,51.47289512,Belle Livingstone's 58th Street Country Club,-1,Music,Jazz,Jazz,Southwark
17uYv0G65IuwA9U,Stranger Things: The First Shadow,2026-07-11,13:00:00,False,London,-0.129497,51.514387,Phoenix Theatre,-1,Arts & Theatre,Theatre,Drama,Camden
1AdjZbwGkwR6s6b,Amex Presents BST Hyde Park - Lewis Capaldi - Ultimate Bar Packages,2026-07-11,13:00:00,False,London,-0.165708,51.507432,Hyde Park,-1,Music,Undefined,Undefined,Westminster
1kuYvNGtGA1e_qM,Iron Maiden - EDDFEST,2026-07-11,13:00:00,False,Stevenage,-0.21487897,51.87289535,Knebworth Park,-1,Music,Metal,Nu-Metal,Stevenage
G5dzZbn6hue5d,Bluey's Big Play,2026-07-11,13:00:00,False,Brighton,-0.146331,50.82153,The Brighton Centre,-1,Arts & Theatre,Children's Theatre,Children's Theatre,Brighton
LvZ18Q9IT_UBt9ZZ0lAeZ,Kaleidoscope Festival - 2026,2026-07-11,13:00:00,False,London,-0.13354,51.59049,Alexandra Palace Park,-1,Music,Undefined,Undefined,Haringey
LvZ18Q_xNuMIbzOZvz20i,Twist Museum - London's Home of Illusions PEAK,2026-07-11,13:00:00,False,London,-0.14319582,51.51539505,Twist Museum,-1,Miscellaneous,Family,Other,Westminster
LvZ18QjyotUZAAYZv7_vV,Ramses and the Pharaoh’s Gold: The Exhibition,2026-07-11,13:00:00,False,London,-0.14214313,51.48187751,Neon at Battersea Power Station,-1,Miscellaneous,Family,Other,Wandsworth
LvZ18Qo9WPCnjSZZvTs9_,Gladiators Experience,2026-07-11,13:00:00,False,Birmingham,-1.717158,52.453266,NEC,-1,Miscellaneous,Family,Other,Birmingham
LvZ18QowMgH3F8YZvjYj4,FRAMELESS 2026,2026-07-11,13:00:00,False,London,-0.15964317,51.51366919,Marble Arch Place,-1,Miscellaneous,Undefined,Undefined,Westminster
LvZ18QreRQqzqTOZ0-3GN,Saturday Jazz Lunch | Frank & Dean,2026-07-11,13:00:00,False,London,-0.022271,51.505252,"Boisdale, Canary Wharf",-1,Music,Jazz,Big Band,Tower Hamlets
LvZ18Qx5OqpcVtYZvva-f,Newcastle Beyond Van Gogh,2026-07-11,13:00:00,False,Newcastle Upon Tyne,-1.623338,54.963809,Utilita Arena Newcastle,11400,Arts & Theatre,Fine Art,Fine Art,Newcastle Upon Tyne
LvZ18QxTDjf7En8vOuniM,The Mumbles Day of Hell,2026-07-11,13:00:00,False,London,-0.03838,51.475524,New Cross Inn,-1,Music,R&B,Funk,Lewisham
1AMZkGVGkdNTc3Z,Iron Maiden - Official Ticket and Hotel Packages,2026-07-11,13:01:00,False,Stevenage,-0.21487897,51.87289535,Knebworth Park,-1,Music,Metal,Nu-Metal,Stevenage
LvZ18Q_xNuMIbzOZvz20c,Twist Museum - London's Home of Illusions PEAK,2026-07-11,13:15:00,False,London,-0.14319582,51.51539505,Twist Museum,-1,Miscellaneous,Family,Other,Westminster
17u8v0G65CrEejI,Faulty Towers the Dining Experience,2026-07-11,13:30:00,False,London,-0.12395745,51.52226825,President Hotel,-1,Arts & Theatre,Theatre,Comedy,Camden
LvZ18Q_xNC6IbzOZvz20m,Twist Museum - London's Home of Illusions PEAK,2026-07-11,13:30:00,False,London,-0.14319582,51.51539505,Twist Museum,-1,Miscellaneous,Family,Other,Westminster
LvZ18QjyotUZAAYZv7_vg,Ramses and the Pharaoh’s Gold: The Exhibition,2026-07-11,13:30:00,False,London,-0.14214313,51.48187751,Neon at Battersea Power Station,-1,Miscellaneous,Family,Other,Wandsworth
LvZ18Qo9WPCnjSZZvTs9Q,Gladiators Experience,2026-07-11,13:30:00,False,Birmingham,-1.717158,52.453266,NEC,-1,Miscellaneous,Family,Other,Birmingham
LvZ18QowMgH3F8YZvjYjp,FRAMELESS 2026,2026-07-11,13:30:00,False,London,-0.15964317,51.51366919,Marble Arch Place,-1,Miscellaneous,Undefined,Undefined,Westminster
LvZ18Qx5OqpcVtYZvva-4,Newcastle Beyond Van Gogh,2026-07-11,13:30:00,False,Newcastle Upon Tyne,-1.623338,54.963809,Utilita Arena Newcastle,11400,Arts & Theatre,Fine Art,Fine Art,Newcastle Upon Tyne
Z3r9uZKbZL4Ze3x2vZke,The Oresteia,2026-07-11,13:30:00,False,London,-0.0880061,51.4992073,Bridge Theatre,-1,Arts & Theatre,Theatre,Drama,Southwark
Zor9uZKbZL4ZefdeAZ_,Arcadia,2026-07-11,13:30:00,False,London,-0.127522,51.510174,Duke of Yorks Theatre,-1,Arts & Theatre,Theatre,Drama,Westminster
LvZ18Q_xNC6IbzOZvz20R,Twist Museum - London's Home of Illusions PEAK,2026-07-11,13:45:00,False,London,-0.14319582,51.51539505,Twist Museum,-1,Miscellaneous,Family,Other,Westminster
16djZbgr4G7UkYp,My Neighbour Totoro,2026-07-11,14:00:00,False,London,-0.119645,51.51429,Gillian Lynne Theatre,1295,Arts & Theatre,Theatre,Drama,Westminster
17GOv0G6uYl5YVV,Oran Mor Summer Panto - Big Bad Riding Hood,2026-07-11,14:00:00,False,Glasgow,-4.289157,55.87738,Oran Mor,-1,Arts & Theatre,Miscellaneous Theatre,Miscellaneous Theatre,Glasgow
17u8v0G65hWFEKb,To Kill A Mockingbird,2026-07-11,14:00:00,False,London,-0.128249,51.511067,Wyndham's Theatre,759,Arts & Theatre,Theatre,Drama,Westminster
17u8v0G65rIRKrE,Cyrano de Bergerac,2026-07-11,14:00:00,False,London,-0.1284654,51.5142805,Noel Coward Theatre,942,Arts & Theatre,Theatre,Drama,Camden
1AdjZbSGkDNNQIs,Matilda The Musical,2026-07-11,14:00:00,False,London,-0.126407,51.51351,Cambridge Theatre,1227,Arts & Theatre,Theatre,Musical,Camden
1AdjZbsGkiuENkJ,Harry Potter and the Cursed Child - Parts 1 & 2 Sat 14:00 & 19:00,2026-07-11,14:00:00,False,London,-0.1297073,51.5131668,Palace Theatre,1743,Arts & Theatre,Theatre,Drama,Westminster
1AdjZbwGkmJHZXP,American Express Presents BST Hyde Park - Lewis Capaldi,2026-07-11,14:00:00,False,London,-0.165708,51.507432,Hyde Park,-1,Music,Undefined,Undefined,Westminster
1AgZk3eGkd55Ub3,Shakespeare's Globe - Much Ado About Nothing,2026-07-11,14:00:00,False,London,-0.096597,51.508111,"Globe Theatre, Shakespeare's Globe",-1,Arts & Theatre,Theatre,Drama,Southwark
LvZ18QKADMbMQ08Zv2JWB,Guided Walks of the Old Course,2026-07-11,14:00:00,False,St Andrews,-2.808659,56.345632,St Andrews Links Clubhouse,-1,Sports,Miscellaneous,Miscellaneous,St Andrews
LvZ18Q_xNC6IbzOZvz20Y,Twist Museum - London's Home of Illusions PEAK,2026-07-11,14:00:00,False,London,-0.14319582,51.51539505,Twist Museum,-1,Miscellaneous,Family,Other,Westminster
LvZ18Qj_rDCZd3YZ0nr_7,Lost Frequencies Open Air,2026-07-11,14:00:00,False,London,-0.06092,51.59109,The Cause,-1,Music,Dance/Electronic,Club Dance,Haringey
LvZ18QjyotUZAAYZv7_vU,Ramses and the Pharaoh’s Gold: The Exhibition,2026-07-11,14:00:00,False,London,-0.14214313,51.48187751,Neon at Battersea Power Station,-1,Miscellaneous,Family,Other,Wandsworth
LvZ18Qo9WPCnjSZZvTs9h,Gladiators Experience,2026-07-11,14:00:00,False,Birmingham,-1.717158,52.453266,NEC,-1,Miscellaneous,Family,Other,Birmingham
LvZ18QowMgH3F8YZvjYj9,FRAMELESS 2026,2026-07-11,14:00:00,False,London,-0.15964317,51.51366919,Marble Arch Place,-1,Miscellaneous,Undefined,Undefined,Westminster
LvZ18Qx5OqpcVtYZvva-p,Newcastle Beyond Van Gogh,2026-07-11,14:00:00,False,Newcastle Upon Tyne,-1.623338,54.963809,Utilita Arena Newcastle,11400,Arts & Theatre,Fine Art,Fine Art,Newcastle Upon Tyne
Z3r9uZKbZL4Ze3x2vZdj,The Oresteia,2026-07-11,14:00:00,False,London,-0.0880061,51.4992073,Bridge Theatre,-1,Arts & Theatre,Theatre,Drama,Southwark
ZKr9uZKbZL4Ze310LZeeq,Cabaret,2026-07-11,14:00:00,False,London,-0.123719,51.506975,Playhouse Theatre,865,Arts & Theatre,Theatre,Musical,Westminster
1AdjZbwGkw2DYNr,Lewis Capaldi - Official Premium Ticket and Hotel Experiences,2026-07-11,14:01:00,False,London,-0.165708,51.507432,Hyde Park,-1,Music,Undefined,Undefined,Westminster
LvZ18Q_xNC6IbzOZvz20s,Twist Museum - London's Home of Illusions PEAK,2026-07-11,14:15:00,False,London,-0.14319582,51.51539505,Twist Museum,-1,Miscellaneous,Family,Other,Westminster
16djZbYOeG7ibU8,Kinky Boots,2026-07-11,14:30:00,False,London,-0.126308,51.509921,London Coliseum,2358,Arts & Theatre,Theatre,Musical,Westminster
17u8v0G65IK35Ud,The Book Of Mormon,2026-07-11,14:30:00,False,London,-0.131809,51.510009,Prince of Wales Theatre,1160,Arts & Theatre,Theatre,Musical,Westminster
17u8vxG6GCgAftM,Operation Mincemeat: A New Musical,2026-07-11,14:30:00,False,Hull,-0.337235,53.747574,Hull New Theatre,-1,Arts & Theatre,Theatre,Musical,Hull
17uOv0G65L3CeAc,Sinatra the Musical,2026-07-11,14:30:00,False,London,-0.118841,51.51312,Aldwych Theatre,-1,Arts & Theatre,Theatre,Musical,Westminster
17uOv0G6GpK99A9,Moulin Rouge! The Musical,2026-07-11,14:30:00,False,Liverpool,-2.978335,53.40891,Liverpool Empire Theatre,-1,Arts & Theatre,Theatre,Musical,Liverpool
17uYv0G6558r3-6,Heathers The Musical,2026-07-11,14:30:00,False,London,-0.159855,51.51329,The Arts at Marble Arch,-1,Arts & Theatre,Theatre,Musical,Westminster
1AMZkGUGkdBJnIQ,Phantom of the Opera,2026-07-11,14:30:00,False,London,-0.132044,51.508133,His Majesty's Theatre,1216,Arts & Theatre,Theatre,Musical,Westminster
1AMZko0GkeXPJes,The Hunger Games On Stage,2026-07-11,14:30:00,False,London,-0.0134276,51.5035337,Troubadour Canary Wharf Theatre,-1,Arts & Theatre,Theatre,Drama,Tower Hamlets
1AMZkuJGkeg5PjY,AVENUE Q,2026-07-11,14:30:00,False,London,-0.126119,51.516285,Shaftesbury Theatre,-1,Arts & Theatre,Theatre,Musical,Camden
1AMZkufGkd12z2D,The Producers,2026-07-11,14:30:00,False,London,-0.127819,51.509954,Garrick Theatre,-1,Arts & Theatre,Theatre,Musical,Westminster
1AUZkGyGkeTKtyA,Wicked,2026-07-11,14:30:00,False,London,-0.142691,51.495785,Apollo Victoria Theatre,2328,Arts & Theatre,Theatre,Musical,Westminster
1AdbZbSGkDAgtF8,The Devil Wears Prada,2026-07-11,14:30:00,False,London,-0.129679,51.516971,Dominion Theatre,2083,Arts & Theatre,Theatre,Musical,Camden
1AdjZbIGkRDdfYz,The Play That Goes Wrong,2026-07-11,14:30:00,False,London,-0.119732,51.512118,Duchess Theatre,-1,Arts & Theatre,Theatre,Comedy,Westminster
1AdjZbUGkzC_BAT,Disney's Hercules,2026-07-11,14:30:00,False,London,-0.120258,51.513008,Theatre Royal Drury Lane,2220,Arts & Theatre,Theatre,Musical,Westminster
1AgZkoaGkety7qY,The Boy Who Harnessed The Wind,2026-07-11,14:30:00,False,London,-0.130436,51.515607,sohoplace,-1,Arts & Theatre,Theatre,Drama,Westminster
1adfZbwGKxAZd22F,Come Alive! The Greatest Showman Circus Spectacular,2026-07-11,14:30:00,False,London,-0.19846932,51.48850056,Empress Museum,-1,Arts & Theatre,Theatre,Musical,Kensington and Chelsea
1ku8vNuNGA2GX-9,Oliver!,2026-07-11,14:30:00,False,London,-0.13324,51.512019,Gielgud Theatre,986,Arts & Theatre,Theatre,Musical,Westminster
G5vHZbw9j-0D2,Witness for the Prosecution,2026-07-11,14:30:00,False,London,-0.119252,51.50282,County Hall,-1,Arts & Theatre,Theatre,Drama,Lambeth
LvZ18Q_xNC6IbzOZvz20w,Twist Museum - London's Home of Illusions PEAK,2026-07-11,14:30:00,False,London,-0.14319582,51.51539505,Twist Museum,-1,Miscellaneous,Family,Other,Westminster
LvZ18QbjIhjNZcOZ00VL_,An Afternoon of indie - Indie for the over 30s!,2026-07-11,14:30:00,False,Stockport,,,The Strines Nightingale,-1,Music,Rock,Alternative Rock,Stockport
LvZ18QjyotUZAAYZv7_vM,Ramses and the Pharaoh’s Gold: The Exhibition,2026-07-11,14:30:00,False,London,-0.14214313,51.48187751,Neon at Battersea Power Station,-1,Miscellaneous,Family,Other,Wandsworth
LvZ18Qo9WPCnjSZZvTs9j,Gladiators Experience,2026-07-11,14:30:00,False,Birmingham,-1.717158,52.453266,NEC,-1,Miscellaneous,Family,Other,Birmingham
LvZ18QowMgH3F8YZvjYjb,FRAMELESS 2026,2026-07-11,14:30:00,False,London,-0.15964317,51.51366919,Marble Arch Place,-1,Miscellaneous,Undefined,Undefined,Westminster
LvZ18Qx5OqpcVtYZvva-9,Newcastle Beyond Van Gogh,2026-07-11,14:30:00,False,Newcastle Upon Tyne,-1.623338,54.963809,Utilita Arena Newcastle,11400,Arts & Theatre,Fine Art,Fine Art,Newcastle Upon Tyne
Z3r9uZKbZL4Ze33L-Zd3,Grace Pervades,2026-07-11,14:30:00,False,London,-0.13128,51.50884,Theatre Royal Haymarket,-1,Arts & Theatre,Theatre,Drama,Westminster
Z3r9uZKbZL4Ze3bd5ZdF,1536,2026-07-11,14:30:00,False,London,-0.128026,51.513006,Ambassadors Theatre,444,Arts & Theatre,Theatre,Drama,Camden
Z3r9uZKbZL4Ze3jaNZeh,High Society,2026-07-11,14:30:00,False,London,-0.093919,51.519812,Barbican Theatre,1166,Arts & Theatre,Theatre,Musical,City of London
Z3r9uZKbZL4Ze3x2dZek,Glengarry Glen Ross,2026-07-11,14:30:00,False,London,-0.1090443,51.5019366,The Old Vic,1067,Arts & Theatre,Theatre,Drama,Lambeth
ZKr9uZKbZL4Ze3eNbZekx,Hamilton,2026-07-11,14:30:00,False,London,-0.142382,51.497012,Victoria Palace Theatre,-1,Arts & Theatre,Theatre,Musical,Westminster
ZKr9uZKbZL4Ze8-4-Zda5,Hadestown,2026-07-11,14:30:00,False,London,-0.133935,51.511248,Lyric Theatre,-1,Arts & Theatre,Theatre,Musical,Westminster
ZKr9uZKbZL4ZeCOjfZk7x,Moulin Rouge! The Musical,2026-07-11,14:30:00,False,London,-0.1353998,51.5110543,Piccadilly Theatre,-1,Arts & Theatre,Theatre,Musical,Westminster
ZKr9uZKbZL4ZeCj6jZkFe,Disney's The Lion King,2026-07-11,14:30:00,False,London,-0.120008,51.511718,Lyceum Theatre,2100,Arts & Theatre,Theatre,Musical,Westminster
ZKr9uZKbZL4Zeo-b6ZeA-,Les Misérables,2026-07-11,14:30:00,False,London,-0.133106,51.512116,Sondheim Theatre,-1,Arts & Theatre,Theatre,Musical,Westminster
Zor9uZKbZL4Ze3-5oZ1,-320°F,2026-07-11,14:30:00,False,London,-0.10626,51.529419,Sadler's Wells,-1,Arts & Theatre,Dance,Ballet,Islington
Zor9uZKbZL4Ze38NdZh,Relics,2026-07-11,14:30:00,False,London,-0.226795,51.492895,Lyric Theatre Hammersmith,-1,Arts & Theatre,Theatre,Drama,Hammersmith and Fulham
Zor9uZKbZL4Ze3x2vZG,The Oresteia,2026-07-11,14:30:00,False,London,-0.0880061,51.4992073,Bridge Theatre,-1,Arts & Theatre,Theatre,Drama,Southwark
Zor9uZKbZL4Zef7CLZk,Allegra,2026-07-11,14:30:00,False,London,-0.131851,51.509326,The Harold Pinter Theatre ,-1,Arts & Theatre,Theatre,Comedy,Westminster
Zor9uZKbZL4Zefe5NZx,Hot Mess: A New Musical,2026-07-11,14:30:00,False,London,-0.1421127,51.4987242,The Other Palace,-1,Arts & Theatre,Theatre,Musical,Westminster
LvZ18Q_xNC6IbzOZvz20S,Twist Museum - London's Home of Illusions PEAK,2026-07-11,14:45:00,False,London,-0.14319582,51.51539505,Twist Museum,-1,Miscellaneous,Family,Other,Westminster
16gZk8MupZA51AuF,Abba Voyage - VIP Premium Package,2026-07-11,15:00:00,False,London,-0.01362306,51.53327366,ABBA Arena,-1,Music,Pop,Pop,Newham
17uYv0G6GmXSdkR,Pre-Season: Chesterfield vs Sheffield United,2026-07-11,15:00:00,False,Chesterfield,-1.42540304,53.25518617,SMH Group Stadium,-1,Sports,Soccer,Soccer,Chesterfield
1AdbZ_dGkBYIfnn,Road To Nashville Festival,2026-07-11,15:00:00,False,Glasgow,-4.298214,55.863711,SWG3,-1,Music,Country,Country,Glasgow
1AdfZbgGkBlBMU8,Beetlejuice,2026-07-11,15:00:00,False,London,-0.130964,51.513763,Prince Edward Theatre,-1,Arts & Theatre,Theatre,Musical,Westminster
1AgZkCKGkew3_S1,ABBA Voyage,2026-07-11,15:00:00,False,London,-0.01362306,51.53327366,ABBA Arena,-1,Music,Pop,Pop,Newham
G5vHZbzXgMVKE,Eden Sessions: The Maccabees,2026-07-11,15:00:00,False,St Austell,-4.742786,50.359603,Eden Project,-1,Music,Rock,Pop,St Austell
LvZ18Q_xNC6IbzOZvz20V,Twist Museum - London's Home of Illusions PEAK,2026-07-11,15:00:00,False,London,-0.14319582,51.51539505,Twist Museum,-1,Miscellaneous,Family,Other,Westminster
LvZ18Qhnkp9HBEYZHRD7I,"An Afternoon of Indie NOTTINGHAM - Indie for the over 30s, 3pm-7pm",2026-07-11,15:00:00,False,Nottingham,-1.14062,52.95269,Saltbox,-1,Music,Alternative,Indie Rock,Nottingham
LvZ18QjyotUZAAYZv7_vz,Ramses and the Pharaoh’s Gold: The Exhibition,2026-07-11,15:00:00,False,London,-0.14214313,51.48187751,Neon at Battersea Power Station,-1,Miscellaneous,Family,Other,Wandsworth
LvZ18Qo9WPCnjSZZvTs9q,Gladiators Experience,2026-07-11,15:00:00,False,Birmingham,-1.717158,52.453266,NEC,-1,Miscellaneous,Family,Other,Birmingham
LvZ18QowMgH3F8YZvjYj_,FRAMELESS 2026,2026-07-11,15:00:00,False,London,-0.15964317,51.51366919,Marble Arch Place,-1,Miscellaneous,Undefined,Undefined,Westminster
LvZ18Qx5OqpcVtYZvva-b,Newcastle Beyond Van Gogh,2026-07-11,15:00:00,False,Newcastle Upon Tyne,-1.623338,54.963809,Utilita Arena Newcastle,11400,Arts & Theatre,Fine Art,Fine Art,Newcastle Upon Tyne
LvZ18QxnabRjd0YvOxz09,For The Love Of Garage - Summer Terrace Party,2026-07-11,15:00:00,False,London,-0.01371,51.537819,Riverside East,-1,Music,Dance/Electronic,Club Dance,Newham
Z3r9uZKbZL4Ze3OLLZeh,Dark of the Moon,2026-07-11,15:00:00,False,London,-0.124122,51.508087,Charing Cross Theatre,265,Arts & Theatre,Theatre,Musical,Westminster
Z3r9uZKbZL4Ze3OppZee,The Truth,2026-07-11,15:00:00,False,London,-0.133935,51.511248,Apollo Theatre,-1,Arts & Theatre,Theatre,Drama,Westminster
Z3r9uZKbZL4Zef7CNZe0,The Mousetrap,2026-07-11,15:00:00,False,London,-0.127672,51.512848,St Martin's Theatre,-1,Arts & Theatre,Theatre,Drama,Camden
ZKr9uZKbZL4Ze3A4LZek1,Mamma Mia!,2026-07-11,15:00:00,False,London,-0.119423,51.511933,Novello Theatre,-1,Arts & Theatre,Theatre,Musical,Westminster
ZKr9uZKbZL4ZeorGbZeaL,Titanique,2026-07-11,15:00:00,False,London,-0.133724,51.509707,Criterion Theatre,-1,Arts & Theatre,Theatre,Musical,Westminster
LvZ18Q_xNC6IbzOZvz20g,Twist Museum - London's Home of Illusions PEAK,2026-07-11,15:15:00,False,London,-0.14319582,51.51539505,Twist Museum,-1,Miscellaneous,Family,Other,Westminster
LvZ18Q_xNC6IbzOZvz20U,Twist Museum - London's Home of Illusions PEAK,2026-07-11,15:30:00,False,London,-0.14319582,51.51539505,Twist Museum,-1,Miscellaneous,Family,Other,Westminster
LvZ18QjyotUZAAYZv7_vy,Ramses and the Pharaoh’s Gold: The Exhibition,2026-07-11,15:30:00,False,London,-0.14214313,51.48187751,Neon at Battersea Power Station,-1,Miscellaneous,Family,Other,Wandsworth
LvZ18Qo9WPCnjSZZvTs9r,Gladiators Experience,2026-07-11,15:30:00,False,Birmingham,-1.717158,52.453266,NEC,-1,Miscellaneous,Family,Other,Birmingham
LvZ18QowMgH3F8YZvjYjQ,FRAMELESS 2026,2026-07-11,15:30:00,False,London,-0.15964317,51.51366919,Marble Arch Place,-1,Miscellaneous,Undefined,Undefined,Westminster
LvZ18Qx5OqpcVtYZvva-_,Newcastle Beyond Van Gogh,2026-07-11,15:30:00,False,Newcastle Upon Tyne,-1.623338,54.963809,Utilita Arena Newcastle,11400,Arts & Theatre,Fine Art,Fine Art,Newcastle Upon Tyne
Z3r9uZKbZL4Ze33ONZ6N,"Oh, Mary!",2026-07-11,15:30:00,False,London,-0.12651,51.5048,Trafalgar Theatre,-1,Arts & Theatre,Theatre,Comedy,Westminster
LvZ18Q_xNC6IbzOZvz20M,Twist Museum - London's Home of Illusions PEAK,2026-07-11,15:45:00,False,London,-0.14319582,51.51539505,Twist Museum,-1,Miscellaneous,Family,Other,Westminster
