event_id,name,date,time,multi_day_event,city,longitude,latitude,venue,capacity,segment,genre,sub_genre,london_borough
LvZ18QxAj1bZeL8vGSGnc,EVERYWHERE AT ONCE: Dewin,2026-06-28,19:00:00,False,"Narberth, Pembrokeshire",-4.744204,51.798915,Queens Hall,-1,Music,Alternative,Adult Alternative Pop/Rock,N/A
LvZ18Q-pKLX3pcOZ0OBgy,SOLID SOUL Fri 10 July 2026 The Jam House Birmingham,2026-07-10,18:00:00,False,Birmingham,-1.904386,52.48509613,The Jam House Birmingham,-1,Music,Pop,Pop,N/A
LvZ18QxNe1aKvNZZv7Zlk,Soho Sports Night - World Cup Special,2026-07-10,20:00:00,False,London,-0.1342534,51.5111721,Jack Solomons Club,-1,Music,Jazz,Jazz,Westminster
LvZ18Q0DFB1xxhPjo2lTB,Dancehall Vs Afrobeats Brixton – Everyone Free Before 12AM,2026-07-10,21:00:00,False,London,-0.114632,51.461795,Prince Of Wales,-1,Music,Dance/Electronic,World Dance,Lambeth
LvZ18QqL4Ffk1eOvqyHPh,"BADSISTA, Anita B Queen, DJ Travella",2026-07-10,22:30:00,False,London,-0.143343,51.53859,Jazz Cafe,440,Music,Dance/Electronic,Dance/Electronic,Camden
LvZ18Qo9WPCnjSZZvTs93,Gladiators Experience,2026-07-11,09:00:00,False,Birmingham,-1.717158,52.453266,NEC,15685,Miscellaneous,Family,Other,N/A
G5dzZbn6hGw5v,Bluey's Big Play,2026-07-11,10:00:00,False,Brighton,-0.146331,50.82153,The Brighton Centre,-1,Arts & Theatre,Children's Theatre,Children's Theatre,N/A
LvZ18Qo9WPCnjSZZvTs9K,Gladiators Experience,2026-07-11,10:00:00,False,Birmingham,-1.717158,52.453266,NEC,15685,Miscellaneous,Family,Other,N/A
LvZ18Qx5ORZj--YZvnmcb,Newcastle Beyond Van Gogh - Flexi,2026-07-11,10:00:00,False,Newcastle Upon Tyne,-1.623338,54.963809,Utilita Arena Newcastle,11400,Arts & Theatre,Fine Art,Fine Art,N/A
LvZ18Qx5OqpcVtYZvva-C,Newcastle Beyond Van Gogh,2026-07-11,10:00:00,False,Newcastle Upon Tyne,-1.623338,54.963809,Utilita Arena Newcastle,11400,Arts & Theatre,Fine Art,Fine Art,N/A
LvZ18Qo9WPCnjSZZvTs9f,Gladiators Experience,2026-07-11,10:30:00,False,Birmingham,-1.717158,52.453266,NEC,15685,Miscellaneous,Family,Other,N/A
LvZ18Qx5OqpcVtYZvva-2,Newcastle Beyond Van Gogh,2026-07-11,10:30:00,False,Newcastle Upon Tyne,-1.623338,54.963809,Utilita Arena Newcastle,11400,Arts & Theatre,Fine Art,Fine Art,N/A
Zor9uZKbZL4Ze3x1aZr,The Tiger Who Came To Tea,2026-07-11,10:30:00,False,London,-0.13128,51.50884,Theatre Royal Haymarket,888,Arts & Theatre,Children's Theatre,Children's Theatre,Westminster
1AdfZbgGkTruG3I,Racing to Zero Summer Mile Family Raceday,2026-07-11,11:00:00,False,Ascot,-0.67942033,51.41231419,Ascot Racecourse,-1,Sports,Equestrian,Horse Racing,N/A
G5vHZbRBbBovA,Lost Minds Festival 2026 Payment Plan,2026-07-11,11:00:00,False,Newcastle,-1.6148629,54.9859248,Exhibition Park,-1,Music,Dance/Electronic,Amapiano,N/A
G5vHZbRE2vvoV,Lost Minds Festival 2026,2026-07-11,11:00:00,False,Newcastle,-1.6148629,54.9859248,Exhibition Park,-1,Music,Pop,Electro Pop,N/A
LvZ18QKADMbMQ08Zv2JWz,Guided Walks of the Old Course,2026-07-11,11:00:00,False,St Andrews,-2.808659,56.345632,St Andrews Links Clubhouse,-1,Sports,Miscellaneous,Miscellaneous,N/A
LvZ18Qo9WPCnjSZZvTs94,Gladiators Experience,2026-07-11,11:00:00,False,Birmingham,-1.717158,52.453266,NEC,15685,Miscellaneous,Family,Other,N/A
LvZ18Qx5OqpcVtYZvva-8,Newcastle Beyond Van Gogh,2026-07-11,11:00:00,False,Newcastle Upon Tyne,-1.623338,54.963809,Utilita Arena Newcastle,11400,Arts & Theatre,Fine Art,Fine Art,N/A
LvZ18Qo9WPCnjSZZvTs9p,Gladiators Experience,2026-07-11,11:30:00,False,Birmingham,-1.717158,52.453266,NEC,15685,Miscellaneous,Family,Other,N/A
LvZ18Qx5OqpcVtYZvva-o,Newcastle Beyond Van Gogh,2026-07-11,11:30:00,False,Newcastle Upon Tyne,-1.623338,54.963809,Utilita Arena Newcastle,11400,Arts & Theatre,Fine Art,Fine Art,N/A
17GOv0G6uYl58Vq,Oran Mor Summer Panto - Big Bad Riding Hood,2026-07-11,12:00:00,False,Glasgow,-4.289157,55.87738,Oran Mor,-1,Arts & Theatre,Miscellaneous Theatre,Miscellaneous Theatre,N/A
1AMZkCvGke03zh7,Saturday Day - Wireless 2026,2026-07-11,12:00:00,False,London,-0.105881,51.564635,Finsbury Park,-1,Music,Undefined,Undefined,Islington
1AdfZ_eGkDn49Sl,Mamma Mia! The Party,2026-07-11,12:00:00,False,London,0.005519,51.501581,The O2,20000,Arts & Theatre,Theatre,Musical,Greenwich
LvZ18Q9RcjVLBYZZ0J5nC,Boogietown 2026,2026-07-11,12:00:00,False,Walton-on-Thames,-0.394981,51.403308,Apps Court Farm,-1,Music,R&B,R&B,N/A
LvZ18QKADMbMQ08Zv2JWy,Guided Walks of the Old Course,2026-07-11,12:00:00,False,St Andrews,-2.808659,56.345632,St Andrews Links Clubhouse,-1,Sports,Miscellaneous,Miscellaneous,N/A
LvZ18Qo9WPCnjSZZvTs99,Gladiators Experience,2026-07-11,12:00:00,False,Birmingham,-1.717158,52.453266,NEC,15685,Miscellaneous,Family,Other,N/A
LvZ18QqzT7Dg6MZvqS5SO,F&NMusic Present's R&B Karaoke Brunch Feat Versions,2026-07-11,12:00:00,False,London,-0.106126,51.534184,Soul Mama Islington,-1,Music,R&B,R&B,Islington
LvZ18Qx5OqpcVtYZvva-3,Newcastle Beyond Van Gogh,2026-07-11,12:00:00,False,Newcastle Upon Tyne,-1.623338,54.963809,Utilita Arena Newcastle,11400,Arts & Theatre,Fine Art,Fine Art,N/A
LvZ18Qb93a-3Bn8Zlu5Ue,Rapid Aye Movement,2026-07-11,12:30:00,False,"Newcastle upon Tyne, NE1 2PQ",-1.59238,54.974933,Cluny 2,-1,Music,Rock,Rock,N/A
LvZ18Qj1kRInnM8Z0Agsf,The Saturday Brunch Club,2026-07-11,12:30:00,False,London,-0.022271,51.505252,"Boisdale, Canary Wharf",-1,Miscellaneous,Food & Drink,Food & Drink,Tower Hamlets
LvZ18Qo9WPCnjSZZvTs9b,Gladiators Experience,2026-07-11,12:30:00,False,Birmingham,-1.717158,52.453266,NEC,15685,Miscellaneous,Family,Other,N/A
LvZ18Qx5OqpcVtYZvva-K,Newcastle Beyond Van Gogh,2026-07-11,12:30:00,False,Newcastle Upon Tyne,-1.623338,54.963809,Utilita Arena Newcastle,11400,Arts & Theatre,Fine Art,Fine Art,N/A
17u8v0G6uJ_skiO,CHAT NOIR!,2026-07-11,12:45:00,False,London,-0.20485809,51.4905226,The Lost Estate,-1,Arts & Theatre,Variety,Cabaret,Hammersmith and Fulham
17u8v0G6uMlRpNH,Belle Livingstone's 58th Street Country Club,2026-07-11,13:00:00,False,London,-0.06736413,51.47289512,Belle Livingstone's 58th Street Country Club,-1,Music,Jazz,Jazz,Southwark
17uYv0G65IuwA9U,Stranger Things: The First Shadow,2026-07-11,13:00:00,False,London,-0.129497,51.514387,Phoenix Theatre,-1,Arts & Theatre,Theatre,Drama,Camden
1AdjZbwGkwR6s6b,Amex Presents BST Hyde Park - Lewis Capaldi - Ultimate Bar Packages,2026-07-11,13:00:00,False,London,-0.165708,51.507432,Hyde Park,-1,Music,Undefined,Undefined,Westminster
1kuYvNGtGA1e_qM,Iron Maiden - EDDFEST,2026-07-11,13:00:00,False,Stevenage,-0.21487897,51.87289535,Knebworth Park,-1,Music,Metal,Nu-Metal,N/A
G5dzZbn6hue5d,Bluey's Big Play,2026-07-11,13:00:00,False,Brighton,-0.146331,50.82153,The Brighton Centre,-1,Arts & Theatre,Children's Theatre,Children's Theatre,N/A
LvZ18Q9IT_UBt9ZZ0lAeZ,Kaleidoscope Festival - 2026,2026-07-11,13:00:00,False,London,-0.13354,51.59049,Alexandra Palace Park,-1,Music,Undefined,Undefined,Haringey
LvZ18Qo9WPCnjSZZvTs9_,Gladiators Experience,2026-07-11,13:00:00,False,Birmingham,-1.717158,52.453266,NEC,15685,Miscellaneous,Family,Other,N/A
LvZ18QreRQqzqTOZ0-3GN,Saturday Jazz Lunch | Frank & Dean,2026-07-11,13:00:00,False,London,-0.022271,51.505252,"Boisdale, Canary Wharf",-1,Music,Jazz,Big Band,Tower Hamlets
LvZ18Qx5OqpcVtYZvva-f,Newcastle Beyond Van Gogh,2026-07-11,13:00:00,False,Newcastle Upon Tyne,-1.623338,54.963809,Utilita Arena Newcastle,11400,Arts & Theatre,Fine Art,Fine Art,N/A
1AMZkGVGkdNTc3Z,Iron Maiden - Official Ticket and Hotel Packages,2026-07-11,13:01:00,False,Stevenage,-0.21487897,51.87289535,Knebworth Park,-1,Music,Metal,Nu-Metal,N/A
17u8v0G65CrEejI,Faulty Towers the Dining Experience,2026-07-11,13:30:00,False,London,-0.12395745,51.52226825,President Hotel,-1,Arts & Theatre,Theatre,Comedy,Camden
LvZ18Qo9WPCnjSZZvTs9Q,Gladiators Experience,2026-07-11,13:30:00,False,Birmingham,-1.717158,52.453266,NEC,15685,Miscellaneous,Family,Other,N/A
LvZ18Qx5OqpcVtYZvva-4,Newcastle Beyond Van Gogh,2026-07-11,13:30:00,False,Newcastle Upon Tyne,-1.623338,54.963809,Utilita Arena Newcastle,11400,Arts & Theatre,Fine Art,Fine Art,N/A
Z3r9uZKbZL4Ze3x2vZke,The Oresteia,2026-07-11,13:30:00,False,London,-0.0880061,51.4992073,Bridge Theatre,900,Arts & Theatre,Theatre,Drama,Southwark
Zor9uZKbZL4ZefdeAZ_,Arcadia,2026-07-11,13:30:00,False,London,-0.127522,51.510174,Duke of Yorks Theatre,640,Arts & Theatre,Theatre,Drama,Westminster
16djZbgr4G7UkYp,My Neighbour Totoro,2026-07-11,14:00:00,False,London,-0.119645,51.51429,Gillian Lynne Theatre,1295,Arts & Theatre,Theatre,Drama,Westminster
17GOv0G6uYl5YVV,Oran Mor Summer Panto - Big Bad Riding Hood,2026-07-11,14:00:00,False,Glasgow,-4.289157,55.87738,Oran Mor,-1,Arts & Theatre,Miscellaneous Theatre,Miscellaneous Theatre,N/A
17u8v0G65hWFEKb,To Kill A Mockingbird,2026-07-11,14:00:00,False,London,-0.128249,51.511067,Wyndham's Theatre,759,Arts & Theatre,Theatre,Drama,Westminster
17u8v0G65rIRKrE,Cyrano de Bergerac,2026-07-11,14:00:00,False,London,-0.1284654,51.5142805,Noel Coward Theatre,942,Arts & Theatre,Theatre,Drama,Camden
1AdjZbSGkDNNQIs,Matilda The Musical,2026-07-11,14:00:00,False,London,-0.126407,51.51351,Cambridge Theatre,1227,Arts & Theatre,Theatre,Musical,Camden
1AdjZbsGkiuENkJ,Harry Potter and the Cursed Child - Parts 1 & 2 Sat 14:00 & 19:00,2026-07-11,14:00:00,False,London,-0.1297073,51.5131668,Palace Theatre,1743,Arts & Theatre,Theatre,Drama,Westminster
1AdjZbwGkmJHZXP,American Express Presents BST Hyde Park - Lewis Capaldi,2026-07-11,14:00:00,False,London,-0.165708,51.507432,Hyde Park,-1,Music,Undefined,Undefined,Westminster
1AgZk3eGkd55Ub3,Shakespeare's Globe - Much Ado About Nothing,2026-07-11,14:00:00,False,London,-0.096597,51.508111,"Globe Theatre, Shakespeare's Globe",-1,Arts & Theatre,Theatre,Drama,Southwark
LvZ18QKADMbMQ08Zv2JWB,Guided Walks of the Old Course,2026-07-11,14:00:00,False,St Andrews,-2.808659,56.345632,St Andrews Links Clubhouse,-1,Sports,Miscellaneous,Miscellaneous,N/A
LvZ18Qj_rDCZd3YZ0nr_7,Lost Frequencies Open Air,2026-07-11,14:00:00,False,London,-0.06092,51.59109,The Cause,-1,Music,Dance/Electronic,Club Dance,Haringey
LvZ18Qo9WPCnjSZZvTs9h,Gladiators Experience,2026-07-11,14:00:00,False,Birmingham,-1.717158,52.453266,NEC,15685,Miscellaneous,Family,Other,N/A
LvZ18Qx5OqpcVtYZvva-p,Newcastle Beyond Van Gogh,2026-07-11,14:00:00,False,Newcastle Upon Tyne,-1.623338,54.963809,Utilita Arena Newcastle,11400,Arts & Theatre,Fine Art,Fine Art,N/A
Z3r9uZKbZL4Ze3x2vZdj,The Oresteia,2026-07-11,14:00:00,False,London,-0.0880061,51.4992073,Bridge Theatre,900,Arts & Theatre,Theatre,Drama,Southwark
ZKr9uZKbZL4Ze310LZeeq,Cabaret,2026-07-11,14:00:00,False,London,-0.123719,51.506975,Playhouse Theatre,865,Arts & Theatre,Theatre,Musical,Westminster
1AdjZbwGkw2DYNr,Lewis Capaldi - Official Premium Ticket and Hotel Experiences,2026-07-11,14:01:00,False,London,-0.165708,51.507432,Hyde Park,-1,Music,Undefined,Undefined,Westminster
16djZbYOeG7ibU8,Kinky Boots,2026-07-11,14:30:00,False,London,-0.126308,51.509921,London Coliseum,2358,Arts & Theatre,Theatre,Musical,Westminster
17u8v0G65IK35Ud,The Book Of Mormon,2026-07-11,14:30:00,False,London,-0.131809,51.510009,Prince of Wales Theatre,1160,Arts & Theatre,Theatre,Musical,Westminster
17u8vxG6GCgAftM,Operation Mincemeat: A New Musical,2026-07-11,14:30:00,False,Hull,-0.337235,53.747574,Hull New Theatre,-1,Arts & Theatre,Theatre,Musical,N/A
17uOv0G65L3CeAc,Sinatra the Musical,2026-07-11,14:30:00,False,London,-0.118841,51.51312,Aldwych Theatre,1200,Arts & Theatre,Theatre,Musical,Westminster
17uOv0G6GpK99A9,Moulin Rouge! The Musical,2026-07-11,14:30:00,False,Liverpool,-2.978335,53.40891,Liverpool Empire Theatre,2350,Arts & Theatre,Theatre,Musical,N/A
1AMZkGUGkdBJnIQ,Phantom of the Opera,2026-07-11,14:30:00,False,London,-0.132044,51.508133,His Majesty's Theatre,1216,Arts & Theatre,Theatre,Musical,Westminster
1AMZko0GkeXPJes,The Hunger Games On Stage,2026-07-11,14:30:00,False,London,-0.0134276,51.5035337,Troubadour Canary Wharf Theatre,-1,Arts & Theatre,Theatre,Drama,Tower Hamlets
1AMZkuJGkeg5PjY,AVENUE Q,2026-07-11,14:30:00,False,London,-0.126119,51.516285,Shaftesbury Theatre,-1,Arts & Theatre,Theatre,Musical,Camden
1AMZkufGkd12z2D,The Producers,2026-07-11,14:30:00,False,London,-0.127819,51.509954,Garrick Theatre,718,Arts & Theatre,Theatre,Musical,Westminster
1AUZkGyGkeTKtyA,Wicked,2026-07-11,14:30:00,False,London,-0.142691,51.495785,Apollo Victoria Theatre,2328,Arts & Theatre,Theatre,Musical,Westminster
1AdbZbSGkDAgtF8,The Devil Wears Prada,2026-07-11,14:30:00,False,London,-0.129679,51.516971,Dominion Theatre,2083,Arts & Theatre,Theatre,Musical,Camden
1AdjZbIGkRDdfYz,The Play That Goes Wrong,2026-07-11,14:30:00,False,London,-0.119732,51.512118,Duchess Theatre,494,Arts & Theatre,Theatre,Comedy,Westminster
1AdjZbUGkzC_BAT,Disney's Hercules,2026-07-11,14:30:00,False,London,-0.120258,51.513008,Theatre Royal Drury Lane,2220,Arts & Theatre,Theatre,Musical,Westminster
1AgZkoaGkety7qY,The Boy Who Harnessed The Wind,2026-07-11,14:30:00,False,London,-0.130436,51.515607,sohoplace,-1,Arts & Theatre,Theatre,Drama,Westminster
1ku8vNuNGA2GX-9,Oliver!,2026-07-11,14:30:00,False,London,-0.13324,51.512019,Gielgud Theatre,986,Arts & Theatre,Theatre,Musical,Westminster
LvZ18QbjIhjNZcOZ00VL_,An Afternoon of indie - Indie for the over 30s!,2026-07-11,14:30:00,False,Stockport,,,The Strines Nightingale,-1,Music,Rock,Alternative Rock,N/A
LvZ18Qo9WPCnjSZZvTs9j,Gladiators Experience,2026-07-11,14:30:00,False,Birmingham,-1.717158,52.453266,NEC,15685,Miscellaneous,Family,Other,N/A
LvZ18Qx5OqpcVtYZvva-9,Newcastle Beyond Van Gogh,2026-07-11,14:30:00,False,Newcastle Upon Tyne,-1.623338,54.963809,Utilita Arena Newcastle,11400,Arts & Theatre,Fine Art,Fine Art,N/A
Z3r9uZKbZL4Ze33L-Zd3,Grace Pervades,2026-07-11,14:30:00,False,London,-0.13128,51.50884,Theatre Royal Haymarket,888,Arts & Theatre,Theatre,Drama,Westminster
Z3r9uZKbZL4Ze3bd5ZdF,1536,2026-07-11,14:30:00,False,London,-0.128026,51.513006,Ambassadors Theatre,444,Arts & Theatre,Theatre,Drama,Camden
Z3r9uZKbZL4Ze3jaNZeh,High Society,2026-07-11,14:30:00,False,London,-0.093919,51.519812,Barbican Theatre,1166,Arts & Theatre,Theatre,Musical,City of London
Z3r9uZKbZL4Ze3x2dZek,Glengarry Glen Ross,2026-07-11,14:30:00,False,London,-0.1090443,51.5019366,The Old Vic,1067,Arts & Theatre,Theatre,Drama,Lambeth
ZKr9uZKbZL4Ze3eNbZekx,Hamilton,2026-07-11,14:30:00,False,London,-0.142382,51.497012,Victoria Palace Theatre,1550,Arts & Theatre,Theatre,Musical,Westminster
ZKr9uZKbZL4Ze8-4-Zda5,Hadestown,2026-07-11,14:30:00,False,London,-0.133935,51.511248,Lyric Theatre,967,Arts & Theatre,Theatre,Musical,Westminster
ZKr9uZKbZL4ZeCOjfZk7x,Moulin Rouge! The Musical,2026-07-11,14:30:00,False,London,-0.1353998,51.5110543,Piccadilly Theatre,-1,Arts & Theatre,Theatre,Musical,Westminster
ZKr9uZKbZL4ZeCj6jZkFe,Disney's The Lion King,2026-07-11,14:30:00,False,London,-0.120008,51.511718,Lyceum Theatre,2100,Arts & Theatre,Theatre,Musical,Westminster
ZKr9uZKbZL4Zeo-b6ZeA-,Les Misérables,2026-07-11,14:30:00,False,London,-0.133106,51.512116,Sondheim Theatre,1075,Arts & Theatre,Theatre,Musical,Westminster
Zor9uZKbZL4Ze3-5oZ1,-320°F,2026-07-11,14:30:00,False,London,-0.10626,51.529419,Sadler's Wells,-1,Arts & Theatre,Dance,Ballet,Islington
Zor9uZKbZL4Ze38NdZh,Relics,2026-07-11,14:30:00,False,London,-0.226795,51.492895,Lyric Theatre Hammersmith,-1,Arts & Theatre,Theatre,Drama,Hammersmith and Fulham
Zor9uZKbZL4Ze3x2vZG,The Oresteia,2026-07-11,14:30:00,False,London,-0.0880061,51.4992073,Bridge Theatre,900,Arts & Theatre,Theatre,Drama,Southwark
Zor9uZKbZL4Zef7CLZk,Allegra,2026-07-11,14:30:00,False,London,-0.131851,51.509326,The Harold Pinter Theatre ,-1,Arts & Theatre,Theatre,Comedy,Westminster
Zor9uZKbZL4Zefe5NZx,Hot Mess: A New Musical,2026-07-11,14:30:00,False,London,-0.1421127,51.4987242,The Other Palace,-1,Arts & Theatre,Theatre,Musical,Westminster
16gZk8MupZA51AuF,Abba Voyage - VIP Premium Package,2026-07-11,15:00:00,False,London,-0.01362306,51.53327366,ABBA Arena,3000,Music,Pop,Pop,Newham
17uYv0G6GmXSdkR,Pre-Season: Chesterfield vs Sheffield United,2026-07-11,15:00:00,False,Chesterfield,-1.42540304,53.25518617,SMH Group Stadium,-1,Sports,Soccer,Soccer,N/A
1AdbZ_dGkBYIfnn,Road To Nashville Festival,2026-07-11,15:00:00,False,Glasgow,-4.298214,55.863711,SWG3,-1,Music,Country,Country,N/A
1AdfZbgGkBlBMU8,Beetlejuice,2026-07-11,15:00:00,False,London,-0.130964,51.513763,Prince Edward Theatre,1618,Arts & Theatre,Theatre,Musical,Westminster
1AgZkCKGkew3_S1,ABBA Voyage,2026-07-11,15:00:00,False,London,-0.01362306,51.53327366,ABBA Arena,3000,Music,Pop,Pop,Newham
G5vHZbzXgMVKE,Eden Sessions: The Maccabees,2026-07-11,15:00:00,False,St Austell,-4.742786,50.359603,Eden Project,-1,Music,Rock,Pop,N/A
LvZ18Qhnkp9HBEYZHRD7I,"An Afternoon of Indie NOTTINGHAM - Indie for the over 30s, 3pm-7pm",2026-07-11,15:00:00,False,Nottingham,-1.14062,52.95269,Saltbox,-1,Music,Alternative,Indie Rock,N/A
LvZ18Qo9WPCnjSZZvTs9q,Gladiators Experience,2026-07-11,15:00:00,False,Birmingham,-1.717158,52.453266,NEC,15685,Miscellaneous,Family,Other,N/A
LvZ18Qx5OqpcVtYZvva-b,Newcastle Beyond Van Gogh,2026-07-11,15:00:00,False,Newcastle Upon Tyne,-1.623338,54.963809,Utilita Arena Newcastle,11400,Arts & Theatre,Fine Art,Fine Art,N/A
Z3r9uZKbZL4Ze3OLLZeh,Dark of the Moon,2026-07-11,15:00:00,False,London,-0.124122,51.508087,Charing Cross Theatre,265,Arts & Theatre,Theatre,Musical,Westminster
Z3r9uZKbZL4Ze3OppZee,The Truth,2026-07-11,15:00:00,False,London,-0.133935,51.511248,Apollo Theatre,775,Arts & Theatre,Theatre,Drama,Westminster
Z3r9uZKbZL4Zef7CNZe0,The Mousetrap,2026-07-11,15:00:00,False,London,-0.127672,51.512848,St Martin's Theatre,-1,Arts & Theatre,Theatre,Drama,Camden
ZKr9uZKbZL4Ze3A4LZek1,Mamma Mia!,2026-07-11,15:00:00,False,London,-0.119423,51.511933,Novello Theatre,1146,Arts & Theatre,Theatre,Musical,Westminster
ZKr9uZKbZL4ZeorGbZeaL,Titanique,2026-07-11,15:00:00,False,London,-0.133724,51.509707,Criterion Theatre,-1,Arts & Theatre,Theatre,Musical,Westminster
LvZ18Qo9WPCnjSZZvTs9r,Gladiators Experience,2026-07-11,15:30:00,False,Birmingham,-1.717158,52.453266,NEC,15685,Miscellaneous,Family,Other,N/A
LvZ18Qx5OqpcVtYZvva-_,Newcastle Beyond Van Gogh,2026-07-11,15:30:00,False,Newcastle Upon Tyne,-1.623338,54.963809,Utilita Arena Newcastle,11400,Arts & Theatre,Fine Art,Fine Art,N/A
Z3r9uZKbZL4Ze33ONZ6N,"Oh, Mary!",2026-07-11,15:30:00,False,London,-0.12651,51.5048,Trafalgar Theatre,-1,Arts & Theatre,Theatre,Comedy,Westminster
17uYv0G65CaUseT,Inala,2026-07-11,16:00:00,False,London,-0.13822703,51.51676177,House of Sisters Grimm,-1,Arts & Theatre,Miscellaneous Theatre,Miscellaneous Theatre,Westminster
1AgZkoSGkdh0Urq,Cambridge Comedy Garden: Sara Pascoe & Bridget Christie,2026-07-11,16:00:00,False,Cambridge,0.126833,52.20048,Parker's Piece Cambridge,-1,Arts & Theatre,Comedy,Comedy,N/A
G5dzZbn6hu35q,Bluey's Big Play,2026-07-11,16:00:00,False,Brighton,-0.146331,50.82153,The Brighton Centre,-1,Arts & Theatre,Children's Theatre,Children's Theatre,N/A
G5vHZbVI75tqv,Sounds of the City Present THE STREETS,2026-07-11,16:00:00,False,Manchester,-2.256881,53.476524,Castlefield Bowl,-1,Arts & Theatre,Miscellaneous,Miscellaneous,N/A
LvZ18Qo9WPCnjSZZvTs9L,Gladiators Experience,2026-07-11,16:00:00,False,Birmingham,-1.717158,52.453266,NEC,15685,Miscellaneous,Family,Other,N/A
LvZ18Qx5OqpcVtYZvva-Q,Newcastle Beyond Van Gogh,2026-07-11,16:00:00,False,Newcastle Upon Tyne,-1.623338,54.963809,Utilita Arena Newcastle,11400,Arts & Theatre,Fine Art,Fine Art,N/A
ZKr9uZKbZL4Ze83obZA1K,Magic Mike Live,2026-07-11,16:00:00,False,London,-0.129629,51.511196,The Theatre at the Hippodrome Casino,180,Arts & Theatre,Miscellaneous,Miscellaneous,Westminster
ZKr9uZKbZL4ZeCNuaZ6Ao,SIX The Musical,2026-07-11,16:00:00,False,London,-0.12265,51.510546,Vaudeville Theatre,690,Arts & Theatre,Theatre,Musical,Westminster
LvZ18Qo9WPCnjSZZvTs9O,Gladiators Experience,2026-07-11,16:30:00,False,Birmingham,-1.717158,52.453266,NEC,15685,Miscellaneous,Family,Other,N/A
1ANZkGkGkd5MZEy,My Chemical Romance - Long Live The Black Parade Tour,2026-07-11,17:00:00,False,London,-0.279581,51.557807,Wembley Stadium,90000,Music,Rock,Alternative Rock,Brent
1AdbZbgGkUClgBD,The Cribs,2026-07-11,17:00:00,False,Leeds,-1.548059,53.800966,Millennium Square Leeds,-1,Music,Rock,Alternative Rock,N/A
1AeGZbYGkDjzYDs,Rob Lamberti Presents Perfectly George - Live Lounge Premium Package,2026-07-11,17:00:00,False,Derby,-1.48013894,52.92137591,"Vaillant Live, Derby",-1,Music,Undefined,Undefined,N/A
G5vHZbgxzubF7,An Evening with Michael Ball,2026-07-11,17:00:00,False,Llangollen,-3.1732473,52.9728542,"Live at Llangollen, Llangollen Pavilion",-1,Music,Pop,Adult Contemporary,N/A
G5vHZbsmx6ouD,David Gray + Special Guest The Divine Comedy,2026-07-11,17:00:00,False,Cardiff,-3.182167,51.481668,Cardiff Castle,-1,Music,Rock,Alternative Rock,N/A
G5vHZbw3SUfAW,David Gray- Official Ticket and Hotel Bundls,2026-07-11,17:00:00,False,Cardiff,-3.182167,51.481668,Cardiff Castle,-1,Music,Rock,Alternative Rock,N/A
LvZ18Q0T5xp3cRa1aCv_6,World Cup 2026 Watch Party: ENGLAND v NORWAY,2026-07-11,17:00:00,False,London,-0.112344,51.46335,Pop Brixton,-1,Sports,Soccer,Soccer,Lambeth
LvZ18Qo9WPCnjSZZvTs9-,Gladiators Experience,2026-07-11,17:00:00,False,Birmingham,-1.717158,52.453266,NEC,15685,Miscellaneous,Family,Other,N/A
1AMZk38GkdSXhQY,THE BEST OF ALL WORLDS - UK TOUR 2026 - SAMMY HAGAR,2026-07-11,17:30:00,False,London,-0.21060857,51.49641301,British Airways ARC,-1,Music,Rock,Pop,Hammersmith and Fulham
G5vHZ_k30MemM,Hull KR V Wakefield Trinity,2026-07-11,17:30:00,False,Hull,-0.265657,53.75412,Craven Park Stadium,-1,Sports,Rugby,Rugby League,N/A
LvZ18Qo9WPCnjSZZvTs9x,Gladiators Experience,2026-07-11,17:30:00,False,Birmingham,-1.717158,52.453266,NEC,15685,Miscellaneous,Family,Other,N/A
15dfZbMjvOyJK,Mouth of the Tyne Festival Presents Self Esteem,2026-07-11,18:00:00,False,Tynemouth,-1.419741,55.017666,Tynemouth Priory and Castle,-1,Music,Pop,Pop,N/A
1AdFZ_FGkXtNZP-,Boogie Days,2026-07-11,18:00:00,False,Dunfermline,-3.46118597,56.07044158,P J Molloys,-1,Miscellaneous,Community/Civic,Community/Civic,N/A
1AdjZ_aGkU0fKAJ,Ilaiyaraaja - Venue Premium Tickets,2026-07-11,18:00:00,False,London,-0.283527,51.557918,OVO Arena Wembley,12500,Music,World,World,Brent
1AeGZbYGkBB6ZUf,Rob Lamberti Presents Perfectly George,2026-07-11,18:00:00,False,Derby,-1.48013894,52.92137591,"Vaillant Live, Derby",-1,Music,Undefined,Undefined,N/A
1AgZkuVGkdUoQsF,SEX PISTOLS FT. FRANK CARTER,2026-07-11,18:00:00,False,Halifax,-1.85657,53.721432,The Piece Hall,-1,Music,Rock,Pop,N/A
1ku8vN3aGA270Jf,Bastille,2026-07-11,18:00:00,False,Scarborough,-0.412086,54.293195,Scarborough Open Air Theatre,-1,Music,Rock,Pop,N/A
G5dzZ_6DQHfSw,Sumo Cyco,2026-07-11,18:00:00,False,London,-0.10661535,51.53445948,O2 Academy2 Islington,-1,Music,Rock,Pop,Islington
G5dzZbUhdqE8R,Jools Holland and His Rhythm and Blues Orchestra,2026-07-11,18:00:00,False,Swansea,-0.29416,51.40792,Swansea Building Society Arena,-1,Music,R&B,R&B,N/A
G5vHZ_FUg6eHo,House of Protection,2026-07-11,18:00:00,False,London,-0.120276,51.530777,Scala,-1,Music,Rock,Alternative Rock,Camden
G5vHZ_dwWwpOE,Summer Concerts - Wildboys Absolute 80s,2026-07-11,18:00:00,False,Staffordshire,-2.202796,52.964786,The Trentham Estate,-1,Music,Rock,Pop,N/A
LvZ18Q2q-VPqtOOZ0c9ea,SATURDAY NIGHT COMEDY - UP THE CREEK,2026-07-11,18:00:00,False,London,-0.01077,51.481328,Up The Creek,-1,Arts & Theatre,Comedy,Comedy,Greenwich
LvZ18Q8cbiPDYwOZvLDRu,The Evolution Of Magic,2026-07-11,18:00:00,False,Blackpool,-3.053354,53.792539,Horseshoe Showbar,-1,Arts & Theatre,Magic & Illusion,Magic,N/A
LvZ18Q9u32wxOVZZ0GNih,Noasis - Hertford Corn Exchange - Saturday 11 July 2026,2026-07-11,18:00:00,False,Hertford,,,Hertford Corn Exchange,-1,Music,Undefined,Undefined,N/A
LvZ18Qo9WPCnjSZZvTs9N,Gladiators Experience,2026-07-11,18:00:00,False,Birmingham,-1.717158,52.453266,NEC,15685,Miscellaneous,Family,Other,N/A
1AdfZbMGkmmB9AN,Bastille - Official Ticket and Hotel Bundls,2026-07-11,18:01:00,False,Scarborough,-0.412086,54.293195,Scarborough Open Air Theatre,-1,Music,Rock,Pop,N/A
1AdfZbMGkmpV7VU,Sex Pistols- Official Ticket and Hotel Bundls,2026-07-11,18:01:00,False,Halifax,-1.85657,53.721432,The Piece Hall,-1,Music,Rock,Pop,N/A
1AdFZ_aGkwRY8Ls,Jinkx Monsoon: Speaking of Witch,2026-07-11,18:30:00,False,Manchester,-2.248891,53.478402,Albert Hall,-1,Arts & Theatre,Performance Art,Performance Art,N/A
1AdfZ_eGkDn-MVm,Mamma Mia! The Party,2026-07-11,18:30:00,False,London,0.005519,51.501581,The O2,20000,Arts & Theatre,Theatre,Musical,Greenwich
1AdfZbgGkS_CtR4,Ludovico Einaudi,2026-07-11,18:30:00,False,London,0.005519,51.501581,The O2,20000,Arts & Theatre,Classical,Symphonic,Greenwich
LvZ18QLMzNXdHQYv18bYR,"Recomposed by Max Richter: Vivaldi, The Four Seasons",2026-07-11,18:30:00,False,London,-0.19510576,51.49884175,Kensington United Reformed Church,-1,Arts & Theatre,Classical,Classical/Vocal,Kensington and Chelsea
LvZ18Qh6G0MyW6YZ0lHXf,The Best in Stand Up - Saturday 11th July 6.30pm,2026-07-11,18:30:00,False,London,-0.13233095,51.50998051,The Comedy Store,-1,Arts & Theatre,Comedy,Comedy,Westminster
LvZ18QxveU7Yw5OvOwI8f,A Tribute to Etta James & Janis Joplin ft. LiV Warfield,2026-07-11,18:30:00,False,London,-0.143343,51.53859,Jazz Cafe,440,Music,R&B,R&B,Camden
1AwZkuyGkdfkYJ-,Legend - a Tribute To Bob Marley Followed By England V Norway - Fifa W,2026-07-11,18:40:00,False,Southampton,-1.383409,50.932847,The Brook,-1,Music,Undefined,Undefined,N/A
17u8v0G6uJ_TpVU,CHAT NOIR!,2026-07-11,18:45:00,False,London,-0.20485809,51.4905226,The Lost Estate,-1,Arts & Theatre,Variety,Cabaret,Hammersmith and Fulham
1AdbZbUGklCoy0s,Garbage,2026-07-11,18:45:00,False,Edinburgh,-3.201479,55.94897,Edinburgh Castle Esplanade,-1,Music,Rock,Alternative Rock,N/A
16MZku9POZAC6Cak,My Neighbour Totoro,2026-07-11,19:00:00,False,London,-0.119645,51.51429,Gillian Lynne Theatre,1295,Arts & Theatre,Theatre,Drama,Westminster
17u8v0G65hW46KW,To Kill A Mockingbird,2026-07-11,19:00:00,False,London,-0.128249,51.511067,Wyndham's Theatre,759,Arts & Theatre,Theatre,Drama,Westminster
17u8v0G65lr_IBv,Last Laugh Comedy Club,2026-07-11,19:00:00,False,Sheffield,-1.471079,53.38118,Sheffield City Hall Memorial Hall,-1,Arts & Theatre,Comedy,Comedy,N/A
17u8v0G6uMlXkJc,Belle Livingstone's 58th Street Country Club,2026-07-11,19:00:00,False,London,-0.06736413,51.47289512,Belle Livingstone's 58th Street Country Club,-1,Music,Jazz,Jazz,Southwark
17uYv0G65IuXP9z,Stranger Things: The First Shadow,2026-07-11,19:00:00,False,London,-0.129497,51.514387,Phoenix Theatre,-1,Arts & Theatre,Theatre,Drama,Camden
1AMZk8MGkdkwA7l,Mojo Brookzz: I Know You F*cking Lying,2026-07-11,19:00:00,False,London,-0.130111,51.511349,Leicester Square Theatre,-1,Arts & Theatre,Comedy,Comedy,Westminster
1AdfZ_7Gkn65vU_,Nourished by Time,2026-07-11,19:00:00,False,London,-0.093931,51.519822,Barbican Hall,-1,Music,Rock,Pop,City of London
1AdjZbSGkDNY1t1,Matilda The Musical,2026-07-11,19:00:00,False,London,-0.126407,51.51351,Cambridge Theatre,1227,Arts & Theatre,Theatre,Musical,Camden
G5dzZ_kMQq6GG,December 10,2026-07-11,19:00:00,False,Liverpool,-2.9771058,53.4091275,O2 Academy Liverpool,-1,Music,Pop,Electro Pop,N/A
G5dzZbznjqdqW,Breaking Benjamin,2026-07-11,19:00:00,False,Glasgow,-4.2587809,55.8504496,O2 Academy Glasgow,-1,Music,Rock,Alternative Rock,N/A
LvZ18Q0cNmMZoaGQckXEi,talkSPORT Fan Zone – England v Norway,2026-07-11,19:00:00,False,Birmingham,-1.89312,52.508179,Sports Illustrated Warehouse,-1,Sports,Soccer,Soccer,N/A
LvZ18Q9wAFFMtzOZlSNb_,Maniac Street Preachers vs. Stereoironics,2026-07-11,19:00:00,False,Southampton,-1.4004633,50.8989811,Southampton 1865,-1,Music,Rock,Alternative Rock,N/A
Z3r9uZKbZL4Ze3x2vZdq,The Oresteia,2026-07-11,19:00:00,False,London,-0.0880061,51.4992073,Bridge Theatre,900,Arts & Theatre,Theatre,Drama,Southwark
ZKr9uZKbZL4Ze83obZA1f,Magic Mike Live,2026-07-11,19:00:00,False,London,-0.129629,51.511196,The Theatre at the Hippodrome Casino,180,Arts & Theatre,Miscellaneous,Miscellaneous,Westminster
Zor9uZKbZL4ZefdeAZQ,Arcadia,2026-07-11,19:00:00,False,London,-0.127522,51.510174,Duke of Yorks Theatre,640,Arts & Theatre,Theatre,Drama,Westminster
G5vHZ_78pcbOa,Aziz Ansari: Hypothetical Tour,2026-07-11,19:15:00,False,London,-0.177552,51.501277,Royal Albert Hall,5272,Arts & Theatre,Comedy,Comedy,Westminster
15djZbsb6PE73,An Evening with David Sedaris,2026-07-11,19:30:00,False,Bristol,-2.5982703,51.45454646,Bristol Beacon,-1,Arts & Theatre,Miscellaneous Theatre,Miscellaneous Theatre,N/A
16djZbYOeG7yFU3,Kinky Boots,2026-07-11,19:30:00,False,London,-0.126308,51.509921,London Coliseum,2358,Arts & Theatre,Theatre,Musical,Westminster
17u8v0G65CrEeqY,Faulty Towers the Dining Experience,2026-07-11,19:30:00,False,London,-0.12395745,51.52226825,President Hotel,-1,Arts & Theatre,Theatre,Comedy,Camden
17u8v0G65IKrhUY,The Book Of Mormon,2026-07-11,19:30:00,False,London,-0.131809,51.510009,Prince of Wales Theatre,1160,Arts & Theatre,Theatre,Musical,Westminster
17u8v0G65rIDNLE,Cyrano de Bergerac,2026-07-11,19:30:00,False,London,-0.1284654,51.5142805,Noel Coward Theatre,942,Arts & Theatre,Theatre,Drama,Camden
17u8vxG629gh3gw,Thank ABBA for The Music,2026-07-11,19:30:00,False,Scarborough,-0.397446,54.275699,Scarborough Spa Theatre,-1,Music,Undefined,Undefined,N/A
17u8vxG6GCgAVtT,Operation Mincemeat: A New Musical,2026-07-11,19:30:00,False,Hull,-0.337235,53.747574,Hull New Theatre,-1,Arts & Theatre,Theatre,Musical,N/A
17uOv0G65L3Qekz,Sinatra the Musical,2026-07-11,19:30:00,False,London,-0.118841,51.51312,Aldwych Theatre,1200,Arts & Theatre,Theatre,Musical,Westminster
17uOv0G6GpKN962,Moulin Rouge! The Musical,2026-07-11,19:30:00,False,Liverpool,-2.978335,53.40891,Liverpool Empire Theatre,2350,Arts & Theatre,Theatre,Musical,N/A
17uYv0G65CaUsdv,Inala,2026-07-11,19:30:00,False,London,-0.13822703,51.51676177,House of Sisters Grimm,-1,Arts & Theatre,Miscellaneous Theatre,Miscellaneous Theatre,Westminster
17uYvxG6uNE3M2H,The Rocket Man - a Tribute To Elton John,2026-07-11,19:30:00,False,Bath,-2.3605,51.378645,Bath Forum,-1,Music,Undefined,Undefined,N/A
1AMZkGUGkdBSBID,Phantom of the Opera,2026-07-11,19:30:00,False,London,-0.132044,51.508133,His Majesty's Theatre,1216,Arts & Theatre,Theatre,Musical,Westminster
1AMZko0GkeXwpdO,The Hunger Games On Stage,2026-07-11,19:30:00,False,London,-0.0134276,51.5035337,Troubadour Canary Wharf Theatre,-1,Arts & Theatre,Theatre,Drama,Tower Hamlets
1AMZkuJGkegbgra,AVENUE Q,2026-07-11,19:30:00,False,London,-0.126119,51.516285,Shaftesbury Theatre,-1,Arts & Theatre,Theatre,Musical,Camden
1AMZkufGkd1qF8q,The Producers,2026-07-11,19:30:00,False,London,-0.127819,51.509954,Garrick Theatre,718,Arts & Theatre,Theatre,Musical,Westminster
1AUZkGyGkeT-ayn,Wicked,2026-07-11,19:30:00,False,London,-0.142691,51.495785,Apollo Victoria Theatre,2328,Arts & Theatre,Theatre,Musical,Westminster
1AdbZbSGkDke_Fm,The Devil Wears Prada,2026-07-11,19:30:00,False,London,-0.129679,51.516971,Dominion Theatre,2083,Arts & Theatre,Theatre,Musical,Camden
1AdfZbgGkBiF6HJ,Beetlejuice,2026-07-11,19:30:00,False,London,-0.130964,51.513763,Prince Edward Theatre,1618,Arts & Theatre,Theatre,Musical,Westminster
1AdjZbIGkRD80se,The Play That Goes Wrong,2026-07-11,19:30:00,False,London,-0.119732,51.512118,Duchess Theatre,494,Arts & Theatre,Theatre,Comedy,Westminster
1AdjZbUGkzCE1k0,Disney's Hercules,2026-07-11,19:30:00,False,London,-0.120258,51.513008,Theatre Royal Drury Lane,2220,Arts & Theatre,Theatre,Musical,Westminster
1AgZk3eGkd5_kbM,Shakespeare's Globe - Much Ado About Nothing,2026-07-11,19:30:00,False,London,-0.096597,51.508111,"Globe Theatre, Shakespeare's Globe",-1,Arts & Theatre,Theatre,Drama,Southwark
1AgZkoSGkdhJprx,Cambridge Comedy Garden: Jack Dee & Christopher McArthur-Boyd,2026-07-11,19:30:00,False,Cambridge,0.126833,52.20048,Parker's Piece Cambridge,-1,Arts & Theatre,Comedy,Comedy,N/A
1AgZkoaGkenk0Lu,The Boy Who Harnessed The Wind,2026-07-11,19:30:00,False,London,-0.130436,51.515607,sohoplace,-1,Arts & Theatre,Theatre,Drama,Westminster
1ku8vNuNGA2_m-n,Oliver!,2026-07-11,19:30:00,False,London,-0.13324,51.512019,Gielgud Theatre,986,Arts & Theatre,Theatre,Musical,Westminster
G5vHZ_51-Hw5j,Shanay Holmes - Live In Concert!,2026-07-11,19:30:00,False,London,-0.157586,51.493673,Cadogan Hall,-1,Arts & Theatre,Theatre,Musical,Kensington and Chelsea
LvZ18Q0RCgrDW3YTHNcE3,NX Presents England vs Norway + MC Tazo,2026-07-11,19:30:00,False,Newcastle Upon Tyne,-1.6308,54.971939,NX,-1,Sports,Soccer,Soccer,N/A
LvZ18QLujeM5BJ8Z0nWpj,The Music of The Lord of The Rings. Tribute to Howard Shore,2026-07-11,19:30:00,False,Old Portsmouth,-1.10450841,50.79088479,Portsmouth Cathedral,-1,Arts & Theatre,Classical,Classical/Vocal,N/A
LvZ18QO6Yr09_E8ZMigdJ,King Tut's Summer Nights Presents: PaperHouse,2026-07-11,19:30:00,False,Glasgow,-4.265037,55.862637,King Tuts Wah Wah Hut,-1,Music,Rock,Pop,N/A
LvZ18QOc1uVRZV8vOz99J,"Recomposed by Max Richter: Vivaldi, The Four Seasons",2026-07-11,19:30:00,False,Edinburgh,-3.191386,55.946672,Greyfriars Kirk,-1,Arts & Theatre,Classical,Classical/Vocal,N/A
LvZ18QQk52mEmB8ZPXKWB,Say Shava Shava : A 25 Year Musical Celebration - Luton,2026-07-11,19:30:00,False,Luton,-0.4140711,51.8811433,Hat Factory Arts Centre ,-1,Film,Foreign,Foreign,N/A
Z3r9uZKbZL4Ze33L-ZdK,Grace Pervades,2026-07-11,19:30:00,False,London,-0.13128,51.50884,Theatre Royal Haymarket,888,Arts & Theatre,Theatre,Drama,Westminster
Z3r9uZKbZL4Ze33ONZ60,"Oh, Mary!",2026-07-11,19:30:00,False,London,-0.12651,51.5048,Trafalgar Theatre,-1,Arts & Theatre,Theatre,Comedy,Westminster
Z3r9uZKbZL4Ze3OLLZej,Dark of the Moon,2026-07-11,19:30:00,False,London,-0.124122,51.508087,Charing Cross Theatre,265,Arts & Theatre,Theatre,Musical,Westminster
Z3r9uZKbZL4Ze3OppZ7k,The Truth,2026-07-11,19:30:00,False,London,-0.133935,51.511248,Apollo Theatre,775,Arts & Theatre,Theatre,Drama,Westminster
Z3r9uZKbZL4Ze3bd5Zda,1536,2026-07-11,19:30:00,False,London,-0.128026,51.513006,Ambassadors Theatre,444,Arts & Theatre,Theatre,Drama,Camden
Z3r9uZKbZL4Ze3jaNZej,High Society,2026-07-11,19:30:00,False,London,-0.093919,51.519812,Barbican Theatre,1166,Arts & Theatre,Theatre,Musical,City of London
Z3r9uZKbZL4Ze3x2dZe6,Glengarry Glen Ross,2026-07-11,19:30:00,False,London,-0.1090443,51.5019366,The Old Vic,1067,Arts & Theatre,Theatre,Drama,Lambeth
Z3r9uZKbZL4Zef7CNZdv,The Mousetrap,2026-07-11,19:30:00,False,London,-0.127672,51.512848,St Martin's Theatre,-1,Arts & Theatre,Theatre,Drama,Camden
ZKr9uZKbZL4Ze310LZeer,Cabaret,2026-07-11,19:30:00,False,London,-0.123719,51.506975,Playhouse Theatre,865,Arts & Theatre,Theatre,Musical,Westminster
ZKr9uZKbZL4Ze3A4LZek5,Mamma Mia!,2026-07-11,19:30:00,False,London,-0.119423,51.511933,Novello Theatre,1146,Arts & Theatre,Theatre,Musical,Westminster
ZKr9uZKbZL4Ze3eNbZekN,Hamilton,2026-07-11,19:30:00,False,London,-0.142382,51.497012,Victoria Palace Theatre,1550,Arts & Theatre,Theatre,Musical,Westminster
ZKr9uZKbZL4Ze8-4-ZdaG,Hadestown,2026-07-11,19:30:00,False,London,-0.133935,51.511248,Lyric Theatre,967,Arts & Theatre,Theatre,Musical,Westminster
ZKr9uZKbZL4ZeCOjfZk7N,Moulin Rouge! The Musical,2026-07-11,19:30:00,False,London,-0.1353998,51.5110543,Piccadilly Theatre,-1,Arts & Theatre,Theatre,Musical,Westminster
ZKr9uZKbZL4ZeCj6jZkFd,Disney's The Lion King,2026-07-11,19:30:00,False,London,-0.120008,51.511718,Lyceum Theatre,2100,Arts & Theatre,Theatre,Musical,Westminster
ZKr9uZKbZL4Zeo-b6ZeAx,Les Misérables,2026-07-11,19:30:00,False,London,-0.133106,51.512116,Sondheim Theatre,1075,Arts & Theatre,Theatre,Musical,Westminster
ZKr9uZKbZL4ZeorGbZeaO,Titanique,2026-07-11,19:30:00,False,London,-0.133724,51.509707,Criterion Theatre,-1,Arts & Theatre,Theatre,Musical,Westminster
Zor9uZKbZL4Ze38NdZj,Relics,2026-07-11,19:30:00,False,London,-0.226795,51.492895,Lyric Theatre Hammersmith,-1,Arts & Theatre,Theatre,Drama,Hammersmith and Fulham
Zor9uZKbZL4Ze3x2vZu,The Oresteia,2026-07-11,19:30:00,False,London,-0.0880061,51.4992073,Bridge Theatre,900,Arts & Theatre,Theatre,Drama,Southwark
Zor9uZKbZL4Zef7CLZ6,Allegra,2026-07-11,19:30:00,False,London,-0.131851,51.509326,The Harold Pinter Theatre ,-1,Arts & Theatre,Theatre,Comedy,Westminster
Zor9uZKbZL4Zefe5NZN,Hot Mess: A New Musical,2026-07-11,19:30:00,False,London,-0.1421127,51.4987242,The Other Palace,-1,Arts & Theatre,Theatre,Musical,Westminster
16dfZ_djgG7IaKE,Abba Voyage - VIP Premium Package,2026-07-11,19:45:00,False,London,-0.01362306,51.53327366,ABBA Arena,3000,Music,Pop,Pop,Newham
1AgZkCKGkewLtga,ABBA Voyage,2026-07-11,19:45:00,False,London,-0.01362306,51.53327366,ABBA Arena,3000,Music,Pop,Pop,Newham
LvZ18QjAlb3SIG8Zz5fvv,De Beauvoir Jazz Festival: Lucy-Anne Daniels & Liselotte Östblom,2026-07-11,19:45:00,False,London,-0.07665,51.54879,Vortex Jazz Club,-1,Music,Jazz,Jazz,Hackney
1AdfZ_dGkw2Rxu8,Michelle Wolf - Best Job in the World,2026-07-11,20:00:00,False,Brighton,-0.139088,50.823717,"Corn Exchange, Brighton",-1,Arts & Theatre,Comedy,Comedy,N/A
1ku8v0QbGAC2oSj,Swamplesque,2026-07-11,20:00:00,False,London,-0.02002133,51.58613733,Soho Theatre Walthamstow,-1,Arts & Theatre,Variety,Cabaret,Waltham Forest
G5dzZ_CFtJPyY,World Cup 2026: England V NORWAY,2026-07-11,20:00:00,False,Birmingham,-1.887562,52.475756,O2 Institute Birmingham,-1,Sports,Soccer,Soccer,N/A
G5dzZ_CbkJNX5,World Cup 2026: England V NORWAY,2026-07-11,20:00:00,False,London,-0.14193,51.552039,O2 Forum Kentish Town,-1,Sports,Soccer,Soccer,Camden
LvZ18Q-ZV1zR-2OZzCqwu,Laugh Out Loud Comedy Club - Bournemouth,2026-07-11,20:00:00,False,Bournemouth,-1.875166,50.717544,Bournemouth Pavilion,-1,Arts & Theatre,Comedy,Comedy,N/A
LvZ18Q0KDsC-uUQr11XBr,England Quarter Finals,2026-07-11,20:00:00,False,Manchester,-2.1995797,53.48661136,CO-OP LIVE VERTU PLACE,-1,Sports,Soccer,Soccer,N/A
LvZ18Q0Rq74LAtpaB_LQw,Bristol World Cup Fan Park: England vs Norway,2026-07-11,20:00:00,False,Bristol,-2.59214808,51.45666317,Electric Bristol,-1,Sports,Soccer,Soccer,N/A
LvZ18Q0V8H6E0Y8OLpZBP,ENGLAND v NORWAY: World Cup 2026 Watch Party,2026-07-11,20:00:00,False,London,-0.114632,51.461795,Prince Of Wales,-1,Sports,Soccer,Soccer,Lambeth
LvZ18Q0mE3Z_5-DVtwitC,Brixton World Cup Fanzone: England vs Norway,2026-07-11,20:00:00,False,London,-0.117044,51.459846,Electric Brixton,-1,Sports,Soccer,Soccer,Lambeth
LvZ18Q9IZn-iVWOZlCsT_,Guns 2 Roses,2026-07-11,20:00:00,False,Nuneaton,-1.473177,52.522554,Queens Hall,-1,Music,Undefined,Undefined,N/A
LvZ18QbxE1KPxZYZ0j2aJ,Line dancing,2026-07-11,20:00:00,False,Cornwall,-4.200316,50.341404,Patchwork Studios & Garrison Gallery,-1,Arts & Theatre,Dance,Dance,N/A
ZKr9uZKbZL4ZeCNuaZ6A3,SIX The Musical,2026-07-11,20:00:00,False,London,-0.12265,51.510546,Vaudeville Theatre,690,Arts & Theatre,Theatre,Musical,Westminster
G5dzZ_C14w-Nb,WORLD CUP 2026: ENGLAND V NORWAY - QUARTER FINAL ,2026-07-11,20:30:00,False,Newcastle Upon Tyne,-1.610213,54.977346,O2 City Hall Newcastle,-1,Sports,Soccer,Soccer,N/A
G5dzZ_uBl_Pm4,World Cup : Quarter Finals,2026-07-11,20:30:00,False,Leeds,-1.547287,53.802291,O2 Academy Leeds,-1,Sports,Soccer,Soccer,N/A
LvZ18QCS5y0Bw6OZvv2fK,"International Stand Up Comedy, Covent Garden",2026-07-11,20:30:00,False,London,-0.126866,51.5137413,Comedy Carnival Covent Garden,-1,Arts & Theatre,Comedy,Comedy,Camden
LvZ18QLFy1VNf_Yv1UiTx,Saturday Comedy Club London | Covent Garden,2026-07-11,20:30:00,False,London,-0.126866,51.5137413,Comedy Carnival Covent Garden,-1,Arts & Theatre,Comedy,Comedy,Camden
LvZ18Q4S95voQ0OZyWeTj,Mania: The ABBA Show,2026-07-11,21:00:00,False,London,-0.022271,51.505252,"Boisdale, Canary Wharf",-1,Music,Undefined,Undefined,Tower Hamlets
17GOv0G6CQaqOlx,England V Norway - Fifa World Cup 2026 - Quarter Final,2026-07-11,21:30:00,False,Southampton,-1.383409,50.932847,The Brook,-1,Sports,Football,College,N/A
17uYv0G616h0lMX,Gary Owen: No Hard Feelings,2026-07-11,21:30:00,False,London,-0.130111,51.511349,Leicester Square Theatre,-1,Arts & Theatre,Comedy,Comedy,Westminster
17uYv0G65CaMvdd,Inala,2026-07-11,21:30:00,False,London,-0.13822703,51.51676177,House of Sisters Grimm,-1,Arts & Theatre,Miscellaneous Theatre,Miscellaneous Theatre,Westminster
17uYv0G6uUQBgzc,Mojo Brookzz: I Know You F*cking Lying,2026-07-11,21:30:00,False,London,-0.130111,51.511349,Leicester Square Theatre,-1,Arts & Theatre,Comedy,Comedy,Westminster
LvZ18Q0RmsaabzM8SHdSd,World Cup: England vs Norway Screening + Free After Party,2026-07-11,21:30:00,False,London,-0.143343,51.53859,Jazz Cafe,440,Sports,Soccer,Soccer,Camden
LvZ18Q0mYn5YkbDmtD3rY,ENGLAND vs NORWAY: QUARTER FINAL SCREENING! - FREE SCREENING,2026-07-11,21:30:00,False,London,-0.01077,51.481328,Up The Creek,-1,Sports,Soccer,Soccer,Greenwich
ZKr9uZKbZL4Ze83obZA14,Magic Mike Live,2026-07-11,21:30:00,False,London,-0.129629,51.511196,The Theatre at the Hippodrome Casino,180,Arts & Theatre,Miscellaneous,Miscellaneous,Westminster
G5dzZ_6Jp1SoD,Bristol Pride Afterparty,2026-07-11,22:00:00,False,Bristol,-2.600849,51.454142,O2 Academy Bristol,-1,Music,Pop,Electro Pop,N/A
LvZ18Q0RoK-WzNFaA1dDY,World Cup 2026: England vs Norway,2026-07-11,22:00:00,False,London,-0.03838,51.475524,New Cross Inn,-1,Sports,Soccer,Soccer,Lewisham
LvZ18QL6nwO0tKZZ0JplD,CLUB STIGMATA - 11th July,2026-07-11,23:00:00,False,Glasgow,-4.259466,55.857805,Ivory Blacks,-1,Music,Alternative,Goth,N/A
LvZ18Q0_grnqitMu1wS7E,Rehab_LDN,2026-07-11,23:45:00,False,London,-0.143343,51.53859,Jazz Cafe,440,Music,Dance/Electronic,Dance/Electronic,Camden
LvZ18QxvnZQDw78ZJI7Lw,Soul City: House music every Saturday,2026-07-11,23:45:00,False,London,-0.143343,51.53859,Jazz Cafe,440,Music,Undefined,Undefined,Camden
LvZ18Q0WHYZMzZZkXCiuj,World Cup: England vs Norway Screening + Free After Party,2026-07-12,00:00:00,False,London,-0.143343,51.53859,Jazz Cafe,440,Sports,Soccer,Soccer,Camden
LvZ18Qo9WPCnjSZZvTs90,Gladiators Experience,2026-07-12,09:00:00,False,Birmingham,-1.717158,52.453266,NEC,15685,Miscellaneous,Family,Other,N/A
G5dzZbn6hux5g,Bluey's Big Play,2026-07-12,10:00:00,False,Brighton,-0.146331,50.82153,The Brighton Centre,-1,Arts & Theatre,Children's Theatre,Children's Theatre,N/A
LvZ18QQ68i8faUYZvFNJv,Newcastle Beyond Van Gogh - Flexi,2026-07-12,10:00:00,False,Newcastle Upon Tyne,-1.623338,54.963809,Utilita Arena Newcastle,11400,Arts & Theatre,Fine Art,Fine Art,N/A
LvZ18QQvEu805zOZvZDcZ,Newcastle Beyond Van Gogh,2026-07-12,10:00:00,False,Newcastle Upon Tyne,-1.623338,54.963809,Utilita Arena Newcastle,11400,Arts & Theatre,Fine Art,Fine Art,N/A
LvZ18Qo9WPCnjSZZvTs9P,Gladiators Experience,2026-07-12,10:00:00,False,Birmingham,-1.717158,52.453266,NEC,15685,Miscellaneous,Family,Other,N/A
LvZ18QQvEu805zOZvZDcv,Newcastle Beyond Van Gogh,2026-07-12,10:30:00,False,Newcastle Upon Tyne,-1.623338,54.963809,Utilita Arena Newcastle,11400,Arts & Theatre,Fine Art,Fine Art,N/A
LvZ18Qo9WPCnjSZZvTs9J,Gladiators Experience,2026-07-12,10:30:00,False,Birmingham,-1.717158,52.453266,NEC,15685,Miscellaneous,Family,Other,N/A
LvZ18QKADMbMQ08Zv2JWD,Guided Walks of the Old Course,2026-07-12,11:00:00,False,St Andrews,-2.808659,56.345632,St Andrews Links Clubhouse,-1,Sports,Miscellaneous,Miscellaneous,N/A
LvZ18QQvEu805zOZvZDce,Newcastle Beyond Van Gogh,2026-07-12,11:00:00,False,Newcastle Upon Tyne,-1.623338,54.963809,Utilita Arena Newcastle,11400,Arts & Theatre,Fine Art,Fine Art,N/A
LvZ18Qo9WPCnjSZZvTs9E,Gladiators Experience,2026-07-12,11:00:00,False,Birmingham,-1.717158,52.453266,NEC,15685,Miscellaneous,Family,Other,N/A
LvZ18QQvEu805zOZvZDcd,Newcastle Beyond Van Gogh,2026-07-12,11:30:00,False,Newcastle Upon Tyne,-1.623338,54.963809,Utilita Arena Newcastle,11400,Arts & Theatre,Fine Art,Fine Art,N/A
LvZ18Qo9WPCnjSZZvTs9I,Gladiators Experience,2026-07-12,11:30:00,False,Birmingham,-1.717158,52.453266,NEC,15685,Miscellaneous,Family,Other,N/A
1AMZkCvGke0JbqF,Sunday Day - Wireless 2026,2026-07-12,12:00:00,False,London,-0.105881,51.564635,Finsbury Park,-1,Music,Undefined,Undefined,Islington
1AdfZ_eGkDnm9z-,Mamma Mia! The Party,2026-07-12,12:00:00,False,London,0.005519,51.501581,The O2,20000,Arts & Theatre,Theatre,Musical,Greenwich
LvZ18QKADMbMQ08Zv2JWH,Guided Walks of the Old Course,2026-07-12,12:00:00,False,St Andrews,-2.808659,56.345632,St Andrews Links Clubhouse,-1,Sports,Miscellaneous,Miscellaneous,N/A
LvZ18QQvEu805zOZvZDc7,Newcastle Beyond Van Gogh,2026-07-12,12:00:00,False,Newcastle Upon Tyne,-1.623338,54.963809,Utilita Arena Newcastle,11400,Arts & Theatre,Fine Art,Fine Art,N/A
LvZ18Qo9WPCnjSZZvTs9t,Gladiators Experience,2026-07-12,12:00:00,False,Birmingham,-1.717158,52.453266,NEC,15685,Miscellaneous,Family,Other,N/A
LvZ18QQvI0_GeBZZv3vX7,Newcastle Beyond Van Gogh,2026-07-12,12:30:00,False,Newcastle Upon Tyne,-1.623338,54.963809,Utilita Arena Newcastle,11400,Arts & Theatre,Fine Art,Fine Art,N/A
LvZ18Qj5u-AQHgZZP6DM_,Sunday Soul Sessions,2026-07-12,12:30:00,False,London,-0.022271,51.505252,"Boisdale, Canary Wharf",-1,Music,R&B,Soul,Tower Hamlets
LvZ18Qo9WPCnjSZZvTs9n,Gladiators Experience,2026-07-12,12:30:00,False,Birmingham,-1.717158,52.453266,NEC,15685,Miscellaneous,Family,Other,N/A
17u8v0G6uJQukXl,CHAT NOIR!,2026-07-12,12:45:00,False,London,-0.20485809,51.4905226,The Lost Estate,-1,Arts & Theatre,Variety,Cabaret,Hammersmith and Fulham
16dfZ_djgG7gtfG,Abba Voyage - VIP Premium Package,2026-07-12,13:00:00,False,London,-0.01362306,51.53327366,ABBA Arena,3000,Music,Pop,Pop,Newham
1AdjZbsGkiuEN6j,Harry Potter and the Cursed Child - Parts 1 & 2 Sun 13:00 & 18:00,2026-07-12,13:00:00,False,London,-0.1297073,51.5131668,Palace Theatre,1743,Arts & Theatre,Theatre,Drama,Westminster
1AdjZbwGkwVEo8t,Amex Presents BST Hyde Park - Lewis Capaldi - Ultimate Bar Packages,2026-07-12,13:00:00,False,London,-0.165708,51.507432,Hyde Park,-1,Music,Undefined,Undefined,Westminster
1AgZk3eGkeMW7Vd,Shakespeare's Globe - a Midsummer Night's Dream,2026-07-12,13:00:00,False,London,-0.096597,51.508111,"Globe Theatre, Shakespeare's Globe",-1,Arts & Theatre,Theatre,Comedy,Southwark
1AgZkCKGkewiyUp,ABBA Voyage,2026-07-12,13:00:00,False,London,-0.01362306,51.53327366,ABBA Arena,3000,Music,Pop,Pop,Newham
G5dzZbn6hCe5y,Bluey's Big Play,2026-07-12,13:00:00,False,Brighton,-0.146331,50.82153,The Brighton Centre,-1,Arts & Theatre,Children's Theatre,Children's Theatre,N/A
LvZ18QQvI0_GeBZZv3vXA,Newcastle Beyond Van Gogh,2026-07-12,13:00:00,False,Newcastle Upon Tyne,-1.623338,54.963809,Utilita Arena Newcastle,11400,Arts & Theatre,Fine Art,Fine Art,N/A
LvZ18Qo9WPCnjSZZvTs9l,Gladiators Experience,2026-07-12,13:00:00,False,Birmingham,-1.717158,52.453266,NEC,15685,Miscellaneous,Family,Other,N/A
17u8v0G65CrE3qM,Faulty Towers the Dining Experience,2026-07-12,13:30:00,False,London,-0.12395745,51.52226825,President Hotel,-1,Arts & Theatre,Theatre,Comedy,Camden
LvZ18QQvI0_GeBZZv3vXk,Newcastle Beyond Van Gogh,2026-07-12,13:30:00,False,Newcastle Upon Tyne,-1.623338,54.963809,Utilita Arena Newcastle,11400,Arts & Theatre,Fine Art,Fine Art,N/A
LvZ18Qo9WPCnjSZZvTs9i,Gladiators Experience,2026-07-12,13:30:00,False,Birmingham,-1.717158,52.453266,NEC,15685,Miscellaneous,Family,Other,N/A
17GOv0G6uYl5OVs,Oran Mor Summer Panto - Big Bad Riding Hood,2026-07-12,14:00:00,False,Glasgow,-4.289157,55.87738,Oran Mor,-1,Arts & Theatre,Miscellaneous Theatre,Miscellaneous Theatre,N/A
1AdjZbSGkDNHBtU,Matilda The Musical,2026-07-12,14:00:00,False,London,-0.126407,51.51351,Cambridge Theatre,1227,Arts & Theatre,Theatre,Musical,Camden
1AdjZbwGkR1YsQz,American Express Presents BST Hyde Park - Lewis Capaldi,2026-07-12,14:00:00,False,London,-0.165708,51.507432,Hyde Park,-1,Music,Undefined,Undefined,Westminster
1adjZbgrp8JZd261,My Neighbour Totoro,2026-07-12,14:00:00,False,London,-0.119645,51.51429,Gillian Lynne Theatre,1295,Arts & Theatre,Theatre,Drama,Westminster
LvZ18QKADMbMQ08Zv2JWW,Guided Walks of the Old Course,2026-07-12,14:00:00,False,St Andrews,-2.808659,56.345632,St Andrews Links Clubhouse,-1,Sports,Miscellaneous,Miscellaneous,N/A
LvZ18QQvI0_GeBZZv3vX6,Newcastle Beyond Van Gogh,2026-07-12,14:00:00,False,Newcastle Upon Tyne,-1.623338,54.963809,Utilita Arena Newcastle,11400,Arts & Theatre,Fine Art,Fine Art,N/A
LvZ18QjnZp-_J88vGUhhK,Electric Heart Surrey,2026-07-12,14:00:00,False,Walton-on-Thames,-0.394981,51.403308,Apps Court Farm,-1,Music,Rock,Alternative Rock,N/A
LvZ18Qo9WPCnjSZZvTs9c,Gladiators Experience,2026-07-12,14:00:00,False,Birmingham,-1.717158,52.453266,NEC,15685,Miscellaneous,Family,Other,N/A
1AMZkoyGkdj0fXv,Lewis Capaldi - Official Premium Ticket and Hotel Experiences,2026-07-12,14:01:00,False,London,-0.165708,51.507432,Hyde Park,-1,Music,Undefined,Undefined,Westminster
1AMZko0GkeXTk7p,The Hunger Games On Stage,2026-07-12,14:30:00,False,London,-0.0134276,51.5035337,Troubadour Canary Wharf Theatre,-1,Arts & Theatre,Theatre,Drama,Tower Hamlets
1AUZkGyGkeTmtBG,Wicked,2026-07-12,14:30:00,False,London,-0.142691,51.495785,Apollo Victoria Theatre,2328,Arts & Theatre,Theatre,Musical,Westminster
1AdbZ_7GkS0XyeO,John Wilson and Sinfonia of London - Venue Premium Tickets,2026-07-12,14:30:00,False,York,-1.073629,53.95386,York Barbican,1500,Arts & Theatre,Classical,Classical/Vocal,N/A
1AgZkoNGkdLDgNx,Vitality Blast: Glos Vs Glamorgan T20,2026-07-12,14:30:00,False,Bristol,-2.585427,51.476892,Seat Unique Stadium,-1,Sports,Cricket,Cricket,N/A
1ku8vNuNGA2JC-M,Oliver!,2026-07-12,14:30:00,False,London,-0.13324,51.512019,Gielgud Theatre,986,Arts & Theatre,Theatre,Musical,Westminster
LvZ18QQvI0_GeBZZv3vXF,Newcastle Beyond Van Gogh,2026-07-12,14:30:00,False,Newcastle Upon Tyne,-1.623338,54.963809,Utilita Arena Newcastle,11400,Arts & Theatre,Fine Art,Fine Art,N/A
LvZ18Qo9WPCnjSZZvTs9m,Gladiators Experience,2026-07-12,14:30:00,False,Birmingham,-1.717158,52.453266,NEC,15685,Miscellaneous,Family,Other,N/A
ZKr9uZKbZL4ZeCj6jZkF7,Disney's The Lion King,2026-07-12,14:30:00,False,London,-0.120008,51.511718,Lyceum Theatre,2100,Arts & Theatre,Theatre,Musical,Westminster
ZKr9uZKbZL4ZeorGbZea-,Titanique,2026-07-12,14:30:00,False,London,-0.133724,51.509707,Criterion Theatre,-1,Arts & Theatre,Theatre,Musical,Westminster
17u8v0G6C1EYfyN,St Helens vs Toulouse Olympique,2026-07-12,15:00:00,False,St Helens,-2.72421,53.44674,BrewDog Stadium,-1,Sports,Rugby,Rugby League,N/A
17uYv0G65IC549H,Stranger Things: The First Shadow,2026-07-12,15:00:00,False,London,-0.129497,51.514387,Phoenix Theatre,-1,Arts & Theatre,Theatre,Drama,Camden
1AdjZbIGkRDq0wv,The Play That Goes Wrong,2026-07-12,15:00:00,False,London,-0.119732,51.512118,Duchess Theatre,494,Arts & Theatre,Theatre,Comedy,Westminster
LvZ18QQvI0_GeBZZv3vXa,Newcastle Beyond Van Gogh,2026-07-12,15:00:00,False,Newcastle Upon Tyne,-1.623338,54.963809,Utilita Arena Newcastle,11400,Arts & Theatre,Fine Art,Fine Art,N/A
LvZ18Qo9WPCnjSZZvTs9R,Gladiators Experience,2026-07-12,15:00:00,False,Birmingham,-1.717158,52.453266,NEC,15685,Miscellaneous,Family,Other,N/A
Z3r9uZKbZL4Ze3OLLZeq,Dark of the Moon,2026-07-12,15:00:00,False,London,-0.124122,51.508087,Charing Cross Theatre,265,Arts & Theatre,Theatre,Musical,Westminster
ZKr9uZKbZL4Ze8-4-Zdau,Hadestown,2026-07-12,15:00:00,False,London,-0.133935,51.511248,Lyric Theatre,967,Arts & Theatre,Theatre,Musical,Westminster
ZKr9uZKbZL4ZeCNuaZ6AK,SIX The Musical,2026-07-12,15:00:00,False,London,-0.12265,51.510546,Vaudeville Theatre,690,Arts & Theatre,Theatre,Musical,Westminster
Zor9uZKbZL4Zef7CLZF,Allegra,2026-07-12,15:00:00,False,London,-0.131851,51.509326,The Harold Pinter Theatre ,-1,Arts & Theatre,Theatre,Comedy,Westminster
Zor9uZKbZL4Zefe5NZ0,Hot Mess: A New Musical,2026-07-12,15:00:00,False,London,-0.1421127,51.4987242,The Other Palace,-1,Arts & Theatre,Theatre,Musical,Westminster
LvZ18QQvI0_GeBZZv3vX1,Newcastle Beyond Van Gogh,2026-07-12,15:30:00,False,Newcastle Upon Tyne,-1.623338,54.963809,Utilita Arena Newcastle,11400,Arts & Theatre,Fine Art,Fine Art,N/A
LvZ18Qo9WPCnjSZZvTs9Y,Gladiators Experience,2026-07-12,15:30:00,False,Birmingham,-1.717158,52.453266,NEC,15685,Miscellaneous,Family,Other,N/A
Zor9uZKbZL4Ze3x5fZ7,Black Is The Color Of My Voice [Garrick],2026-07-12,15:30:00,False,London,-0.127819,51.509954,Garrick Theatre,718,Arts & Theatre,Theatre,Drama,Westminster
1AgZkoSGkdhEUrt,Cambridge Comedy Garden: Chris McCausland & Ed Byrne,2026-07-12,16:00:00,False,Cambridge,0.126833,52.20048,Parker's Piece Cambridge,-1,Arts & Theatre,Comedy,Comedy,N/A
G5dzZbn6hC3Ge,Bluey's Big Play,2026-07-12,16:00:00,False,Brighton,-0.146331,50.82153,The Brighton Centre,-1,Arts & Theatre,Children's Theatre,Children's Theatre,N/A
LvZ18Q0XGe4DTJsu4vV5c,Rooftop Summer Party,2026-07-12,16:00:00,False,London,-0.115021,51.461845,Brixton Storeys,-1,Miscellaneous,Undefined,Undefined,Lambeth
LvZ18QQvI0_GeBZZv3vX5,Newcastle Beyond Van Gogh,2026-07-12,16:00:00,False,Newcastle Upon Tyne,-1.623338,54.963809,Utilita Arena Newcastle,11400,Arts & Theatre,Fine Art,Fine Art,N/A
ZKr9uZKbZL4Ze83obZA1p,Magic Mike Live,2026-07-12,16:00:00,False,London,-0.129629,51.511196,The Theatre at the Hippodrome Casino,180,Arts & Theatre,Miscellaneous,Miscellaneous,Westminster
17uOvxG62hn47P-,Critical Role Live,2026-07-12,16:30:00,False,Edinburgh,-3.201479,55.94897,Edinburgh Castle Esplanade,-1,Arts & Theatre,Theatre,Podcast,N/A
LvZ18QQvI0_GeBZZv3vXG,Newcastle Beyond Van Gogh,2026-07-12,16:30:00,False,Newcastle Upon Tyne,-1.623338,54.963809,Utilita Arena Newcastle,11400,Arts & Theatre,Fine Art,Fine Art,N/A
G5vHZ_6dng0DV,Choir of the World,2026-07-12,17:00:00,False,Llangollen,-3.1732473,52.9728542,"Live at Llangollen, Llangollen Pavilion",-1,Music,Other,Other,N/A
G5vHZbUzA5cd0,Sounds of the City Present Sex Pistols,2026-07-12,17:00:00,False,Manchester,-2.256881,53.476524,Castlefield Bowl,-1,Music,Rock,Pop,N/A
G5vHZbzCPT4-x,Super Furry Animals Plus Very Special Guests The Beta Band,2026-07-12,17:00:00,False,London,-0.13354,51.59049,Alexandra Palace Park,-1,Music,Rock,Alternative Rock,Haringey
G5vHZbzpmAbed,In the Park Newcastle presents Wolf Alice,2026-07-12,17:00:00,False,Newcastle,-1.6148629,54.9859248,Exhibition Park,-1,Music,Rock,Alternative Rock,N/A
LvZ18QQvI0_GeBZZv3vXu,Newcastle Beyond Van Gogh,2026-07-12,17:00:00,False,Newcastle Upon Tyne,-1.623338,54.963809,Utilita Arena Newcastle,11400,Arts & Theatre,Fine Art,Fine Art,N/A
LvZ18Qj_Odm3TNZvGYmQr,DARKSIDE (early show),2026-07-12,17:00:00,False,London,-0.075203,51.551041,EartH,-1,Music,Rock,Alternative Rock,Hackney
16gZk8MuOZAu1kd1,Abba Voyage - VIP Premium Package,2026-07-12,18:00:00,False,London,-0.01362306,51.53327366,ABBA Arena,3000,Music,Pop,Pop,Newham
1AdfZbVGknr7pcq,Billy Ocean with very special guest Marti Pellow,2026-07-12,18:00:00,False,Halifax,-1.85657,53.721432,The Piece Hall,-1,Music,R&B,Soul,N/A
1AgZkCKGkewBaM3,ABBA Voyage,2026-07-12,18:00:00,False,London,-0.01362306,51.53327366,ABBA Arena,3000,Music,Pop,Pop,Newham
1ku8v0OwGAGShLz,Mouth of the Tyne Festival presents James,2026-07-12,18:00:00,False,Tynemouth,-1.419741,55.017666,Tynemouth Priory and Castle,-1,Music,Rock,Alternative Rock,N/A
LvZ18Qj2-IkYBuZZ0zXOd,I Am The Avalanche,2026-07-12,18:00:00,False,London,-0.03838,51.475524,New Cross Inn,-1,Music,Rock,Alternative Rock,Lewisham
1AgZku8GkdPWhJS,Billy Ocean- Official Ticket and Hotel Bundls,2026-07-12,18:01:00,False,Halifax,-1.85657,53.721432,The Piece Hall,-1,Music,R&B,Soul,N/A
17u8v0G65CrE3qH,Faulty Towers the Dining Experience,2026-07-12,18:30:00,False,London,-0.12395745,51.52226825,President Hotel,-1,Arts & Theatre,Theatre,Comedy,Camden
1AMZk38GkdD9jAp,THE BEST OF ALL WORLDS - UK TOUR 2026 - SAMMY HAGAR,2026-07-12,18:30:00,False,London,-0.21060857,51.49641301,British Airways ARC,-1,Music,Rock,Pop,Hammersmith and Fulham
1AdfZ_eGkDnBMzm,Mamma Mia! The Party,2026-07-12,18:30:00,False,London,0.005519,51.501581,The O2,20000,Arts & Theatre,Theatre,Musical,Greenwich
1AgZk3eGkez57Vm,Shakespeare's Globe - a Midsummer Night's Dream,2026-07-12,18:30:00,False,London,-0.096597,51.508111,"Globe Theatre, Shakespeare's Globe",-1,Arts & Theatre,Theatre,Comedy,Southwark
LvZ18QQhvDVKVjOZ0h-8Q,The Sunday Service w/ Paul Sinha,2026-07-12,18:30:00,False,London,-0.01077,51.481328,Up The Creek,-1,Arts & Theatre,Comedy,Comedy,Greenwich
15djZ_apfbwax,Mojo Brookzz: I Know You F*cking Lying,2026-07-12,19:00:00,False,London,-0.130111,51.511349,Leicester Square Theatre,-1,Arts & Theatre,Comedy,Comedy,Westminster
17u8v0G6uMiGptB,Belle Livingstone's 58th Street Country Club,2026-07-12,19:00:00,False,London,-0.06736413,51.47289512,Belle Livingstone's 58th Street Country Club,-1,Music,Jazz,Jazz,Southwark
1AMZkGYGkemSFRT,Rumours of Fleetwood Mac,2026-07-12,19:00:00,False,Watford,-0.403457,51.658974,Watford Colosseum,-1,Music,Undefined,Undefined,N/A
1AUZkuEGkdQ0aSr,Jools Holland and His Rhythm and Blues Orchestra,2026-07-12,19:00:00,False,Torquay,-3.530138,50.461348,Princess Theatre - Torquay,-1,Music,R&B,R&B,N/A
1AdjZbIGkRDn0wi,The Play That Goes Wrong,2026-07-12,19:00:00,False,London,-0.119732,51.512118,Duchess Theatre,494,Arts & Theatre,Theatre,Comedy,Westminster
G5dzZ_dY3bMvJ,Sunny Day Real Estate,2026-07-12,19:00:00,False,London,-0.14193,51.552039,O2 Forum Kentish Town,-1,Music,Rock,Pop,Camden
LvZ18Q9tcOegIvZZwYmuR,Lata & Asha: Purane Gaane… Side A | Side B – Birmingham,2026-07-12,19:00:00,False,Birmingham,-1.89662,52.474541,Glee Club,-1,Music,World,Bollywood,N/A
LvZ18QQEf459UXZZVeEhD,La Perla,2026-07-12,19:00:00,False,London,-0.143343,51.53859,Jazz Cafe,440,Music,Latin,Latin,Camden
ZKr9uZKbZL4Ze83obZA19,Magic Mike Live,2026-07-12,19:00:00,False,London,-0.129629,51.511196,The Theatre at the Hippodrome Casino,180,Arts & Theatre,Miscellaneous,Miscellaneous,Westminster
ZKr9uZKbZL4ZeCNuaZ6Af,SIX The Musical,2026-07-12,19:00:00,False,London,-0.12265,51.510546,Vaudeville Theatre,690,Arts & Theatre,Theatre,Musical,Westminster
ZKr9uZKbZL4ZeorGbZeax,Titanique,2026-07-12,19:00:00,False,London,-0.133724,51.509707,Criterion Theatre,-1,Arts & Theatre,Theatre,Musical,Westminster
Zor9uZKbZL4Ze3x5fZd,Black Is The Color Of My Voice [Garrick],2026-07-12,19:00:00,False,London,-0.127819,51.509954,Garrick Theatre,718,Arts & Theatre,Theatre,Drama,Westminster
1AUZkotGkes97CM,The Cavern Club Story,2026-07-12,19:30:00,False,Dunfermline,-3.45799,56.069812,Alhambra Theatre,-1,Music,Other,Other,N/A
1AdjZ_aGkDcuF52,Jinkx Monsoon: Speaking of Witch,2026-07-12,19:30:00,False,London,-0.120258,51.513008,Theatre Royal Drury Lane,2220,Arts & Theatre,Performance Art,Performance Art,Westminster
1AgZkoSGkdhtkri,Cambridge Comedy Garden: Tom Allen & Lou Sanders,2026-07-12,19:30:00,False,Cambridge,0.126833,52.20048,Parker's Piece Cambridge,-1,Arts & Theatre,Comedy,Comedy,N/A
G5vHZ_amxo3Wj,Lifehouse - Best of Acoustic,2026-07-12,19:30:00,False,London,-0.231579,51.506574,Bush Hall,-1,Music,Rock,Alternative Rock,Hammersmith and Fulham
LvZ18QO6sU4r8WOvqxxJN,King Tut's Summer Nights Presents: Modern Ruin,2026-07-12,19:30:00,False,Glasgow,-4.265037,55.862637,King Tuts Wah Wah Hut,-1,Music,Rock,Pop,N/A
LvZ18QOsoDOr_WYZ0fiAB,Crocodiles,2026-07-12,19:30:00,False,Manchester,-2.23823,53.46167,The Abbey,-1,Music,Rock,Alternative Rock,N/A
LvZ18QbF-5F44oYZ03tJ6,MusicmanMike,2026-07-12,19:30:00,False,Newcastle Upon Tyne,-1.59238,54.974933,The Cluny,-1,Music,Hip-Hop/Rap,Hip-Hop/Rap,N/A
LvZ18Qh6vC8ZNWOZVQwvb,The Comedy Store Players - Sunday 12th July,2026-07-12,19:30:00,False,London,-0.13233095,51.50998051,The Comedy Store,-1,Arts & Theatre,Comedy,Comedy,Westminster
Zor9uZKbZL4Ze3ObaZd,The Simon & Garfunkel Story,2026-07-12,19:30:00,False,London,-0.129679,51.516971,Dominion Theatre,2083,Music,Other,Other,Camden
1AwZkuyGkeNTO-w,Dri,2026-07-12,20:00:00,False,Southampton,-1.383409,50.932847,The Brook,-1,Music,Metal,Nu-Metal,N/A
LvZ18Qj_c2SQpzOZ0OzJN,DARKSIDE (late show),2026-07-12,20:30:00,False,London,-0.075203,51.551041,EartH,-1,Music,Rock,Alternative Rock,Hackney
LvZ18QQ68i8faUYZvFNJe,Newcastle Beyond Van Gogh - Flexi,2026-07-13,10:00:00,False,Newcastle Upon Tyne,-1.623338,54.963809,Utilita Arena Newcastle,11400,Arts & Theatre,Fine Art,Fine Art,N/A
LvZ18QQvI0_GeBZZv3vXC,Newcastle Beyond Van Gogh,2026-07-13,10:00:00,False,Newcastle Upon Tyne,-1.623338,54.963809,Utilita Arena Newcastle,11400,Arts & Theatre,Fine Art,Fine Art,N/A
LvZ18QQvI0_GeBZZv3vX2,Newcastle Beyond Van Gogh,2026-07-13,10:30:00,False,Newcastle Upon Tyne,-1.623338,54.963809,Utilita Arena Newcastle,11400,Arts & Theatre,Fine Art,Fine Art,N/A
LvZ18QKADMbMQ08Zv2JWX,Guided Walks of the Old Course,2026-07-13,11:00:00,False,St Andrews,-2.808659,56.345632,St Andrews Links Clubhouse,-1,Sports,Miscellaneous,Miscellaneous,N/A
LvZ18QQvI0_GeBZZv3vX8,Newcastle Beyond Van Gogh,2026-07-13,11:00:00,False,Newcastle Upon Tyne,-1.623338,54.963809,Utilita Arena Newcastle,11400,Arts & Theatre,Fine Art,Fine Art,N/A
LvZ18QQvI0_GeBZZv3vXo,Newcastle Beyond Van Gogh,2026-07-13,11:30:00,False,Newcastle Upon Tyne,-1.623338,54.963809,Utilita Arena Newcastle,11400,Arts & Theatre,Fine Art,Fine Art,N/A
LvZ18QKADMbMQ08Zv2JWT,Guided Walks of the Old Course,2026-07-13,12:00:00,False,St Andrews,-2.808659,56.345632,St Andrews Links Clubhouse,-1,Sports,Miscellaneous,Miscellaneous,N/A
LvZ18QQvI0_GeBZZv3vX3,Newcastle Beyond Van Gogh,2026-07-13,12:00:00,False,Newcastle Upon Tyne,-1.623338,54.963809,Utilita Arena Newcastle,11400,Arts & Theatre,Fine Art,Fine Art,N/A
LvZ18QQvI0_GeBZZv3vXK,Newcastle Beyond Van Gogh,2026-07-13,12:30:00,False,Newcastle Upon Tyne,-1.623338,54.963809,Utilita Arena Newcastle,11400,Arts & Theatre,Fine Art,Fine Art,N/A
LvZ18QQvI0_GeBZZv3vXf,Newcastle Beyond Van Gogh,2026-07-13,13:00:00,False,Newcastle Upon Tyne,-1.623338,54.963809,Utilita Arena Newcastle,11400,Arts & Theatre,Fine Art,Fine Art,N/A
LvZ18QQvI0_GeBZZv3vX4,Newcastle Beyond Van Gogh,2026-07-13,13:30:00,False,Newcastle Upon Tyne,-1.623338,54.963809,Utilita Arena Newcastle,11400,Arts & Theatre,Fine Art,Fine Art,N/A
LvZ18QKADMbMQ08Zv2JXZ,Guided Walks of the Old Course,2026-07-13,14:00:00,False,St Andrews,-2.808659,56.345632,St Andrews Links Clubhouse,-1,Sports,Miscellaneous,Miscellaneous,N/A
LvZ18QQvI0_GeBZZv3vXp,Newcastle Beyond Van Gogh,2026-07-13,14:00:00,False,Newcastle Upon Tyne,-1.623338,54.963809,Utilita Arena Newcastle,11400,Arts & Theatre,Fine Art,Fine Art,N/A
LvZ18QQvI0_GeBZZv3vX9,Newcastle Beyond Van Gogh,2026-07-13,14:30:00,False,Newcastle Upon Tyne,-1.623338,54.963809,Utilita Arena Newcastle,11400,Arts & Theatre,Fine Art,Fine Art,N/A
LvZ18QQvI0_GeBZZv3vXb,Newcastle Beyond Van Gogh,2026-07-13,15:00:00,False,Newcastle Upon Tyne,-1.623338,54.963809,Utilita Arena Newcastle,11400,Arts & Theatre,Fine Art,Fine Art,N/A
LvZ18QQvI0_GeBZZv3vX_,Newcastle Beyond Van Gogh,2026-07-13,15:30:00,False,Newcastle Upon Tyne,-1.623338,54.963809,Utilita Arena Newcastle,11400,Arts & Theatre,Fine Art,Fine Art,N/A
LvZ18QQvI0_GeBZZv3vXQ,Newcastle Beyond Van Gogh,2026-07-13,16:00:00,False,Newcastle Upon Tyne,-1.623338,54.963809,Utilita Arena Newcastle,11400,Arts & Theatre,Fine Art,Fine Art,N/A
LvZ18QQvI0_GeBZZv3vXh,Newcastle Beyond Van Gogh,2026-07-13,16:30:00,False,Newcastle Upon Tyne,-1.623338,54.963809,Utilita Arena Newcastle,11400,Arts & Theatre,Fine Art,Fine Art,N/A
17u8vxG6udEZ6V6,System Of A Down,2026-07-13,17:00:00,False,London,-0.06787,51.600819,Tottenham Hotspur Stadium,62850,Music,Metal,Nu-Metal,Haringey
LvZ18QQvI0_GeBZZv3vXj,Newcastle Beyond Van Gogh,2026-07-13,17:00:00,False,Newcastle Upon Tyne,-1.623338,54.963809,Utilita Arena Newcastle,11400,Arts & Theatre,Fine Art,Fine Art,N/A
LvZ18Qj_yGr3TNZZ0YmId,DARKSIDE (early show),2026-07-13,18:00:00,False,London,-0.075203,51.551041,EartH,-1,Music,Rock,Alternative Rock,Hackney
G5vHZbUReMb8f,Jools Holland and His Rhythm and Blues Orchestra,2026-07-13,18:30:00,False,Salisbury,-1.800462,51.070294,Salisbury City Hall,-1,Music,R&B,R&B,N/A
17u8v0G65h2P4vP,Alewya,2026-07-13,19:00:00,False,London,-0.129112,51.515497,The Lower Third,-1,Music,R&B,R&B,Camden
17u8v0G65hW-EfS,To Kill A Mockingbird,2026-07-13,19:00:00,False,London,-0.128249,51.511067,Wyndham's Theatre,759,Arts & Theatre,Theatre,Drama,Westminster
1AMZkufGkd1nb8y,The Producers,2026-07-13,19:00:00,False,London,-0.127819,51.509954,Garrick Theatre,718,Arts & Theatre,Theatre,Musical,Westminster
1AdOZbzGknbbeo0,Breaking Benjamin,2026-07-13,19:00:00,False,Belfast,-5.932275,54.602427,The Telegraph Building,-1,Music,Rock,Alternative Rock,N/A
G5dzZ_1pzndHX,Lifehouse - Best of Acoustic,2026-07-13,19:00:00,False,London,-0.224435,51.503525,O2 Shepherds Bush Empire,-1,Music,Rock,Alternative Rock,Hammersmith and Fulham
G5dzZbMRsk1Df,Boys Like Girls,2026-07-13,19:00:00,False,Bristol,-2.600849,51.454142,O2 Academy Bristol,-1,Music,Rock,Alternative Rock,N/A
G5vHZbSewdkyZ,Rumours of Fleetwood Mac,2026-07-13,19:00:00,False,Llandudno,-3.815494,53.321836,Venue Cymru Theatre,-1,Music,Undefined,Undefined,N/A
LvZ18QLwenLAlKZZ0A4vR,Concert for Mental Health: Harry Mack,2026-07-13,19:00:00,False,London,-0.143343,51.53859,Jazz Cafe,440,Music,Hip-Hop/Rap,Rap-Rock,Camden
LvZ18QhOLa_kdg8Zir1eB,December 10,2026-07-13,19:00:00,False,Sheffield,-1.464856,53.376266,Electric Studios,-1,Music,Pop,Pop,N/A
Z3r9uZKbZL4Ze3x2vZdr,The Oresteia,2026-07-13,19:00:00,False,London,-0.0880061,51.4992073,Bridge Theatre,900,Arts & Theatre,Theatre,Drama,Southwark
Zor9uZKbZL4ZefdeAZh,Arcadia,2026-07-13,19:00:00,False,London,-0.127522,51.510174,Duke of Yorks Theatre,640,Arts & Theatre,Theatre,Drama,Westminster
17u8v0G65IKnhMU,The Book Of Mormon,2026-07-13,19:30:00,False,London,-0.131809,51.510009,Prince of Wales Theatre,1160,Arts & Theatre,Theatre,Musical,Westminster
17u8v0G65rt6NOa,Cyrano de Bergerac,2026-07-13,19:30:00,False,London,-0.1284654,51.5142805,Noel Coward Theatre,942,Arts & Theatre,Theatre,Drama,Camden
17uOv0G6GpKREFy,Moulin Rouge! The Musical,2026-07-13,19:30:00,False,Liverpool,-2.978335,53.40891,Liverpool Empire Theatre,2350,Arts & Theatre,Theatre,Musical,N/A
1AMZkGUGkdDZntu,Phantom of the Opera,2026-07-13,19:30:00,False,London,-0.132044,51.508133,His Majesty's Theatre,1216,Arts & Theatre,Theatre,Musical,Westminster
1AMZkuJGkegPgrS,AVENUE Q,2026-07-13,19:30:00,False,London,-0.126119,51.516285,Shaftesbury Theatre,-1,Arts & Theatre,Theatre,Musical,Camden
1AdbZbSGkDk2aab,The Devil Wears Prada,2026-07-13,19:30:00,False,London,-0.129679,51.516971,Dominion Theatre,2083,Arts & Theatre,Theatre,Musical,Camden
1AdfZbgGkBi4bej,Beetlejuice,2026-07-13,19:30:00,False,London,-0.130964,51.513763,Prince Edward Theatre,1618,Arts & Theatre,Theatre,Musical,Westminster
1AdjZbUGkzCVn63,Disney's Hercules,2026-07-13,19:30:00,False,London,-0.120258,51.513008,Theatre Royal Drury Lane,2220,Arts & Theatre,Theatre,Musical,Westminster
1AgZkoaGkenf7-_,The Boy Who Harnessed The Wind,2026-07-13,19:30:00,False,London,-0.130436,51.515607,sohoplace,-1,Arts & Theatre,Theatre,Drama,Westminster
G5vHZ_61x9NSw,Militarie Gun,2026-07-13,19:30:00,False,Manchester,-2.243351,53.473982,Manchester Gorilla,-1,Music,Rock,Punk,N/A
G5vHZbi2g9xIJ,Operation Mincemeat: A New Musical,2026-07-13,19:30:00,False,Northampton,-0.894129,52.236412,Royal and Derngate,-1,Arts & Theatre,Theatre,Musical,N/A
LvZ18Q9w7qMD_4ZZ0VH_Y,Jimmy Nail,2026-07-13,19:30:00,False,Cumbria,-2.748059,54.325351,Kendal Brewery Arts Centre,-1,Music,Pop,Singer-Songwriter,N/A
LvZ18QhkXwYcuI8ZHvd2k,Old Rope - Monday 13th July,2026-07-13,19:30:00,False,London,-0.13233095,51.50998051,The Comedy Store,-1,Arts & Theatre,Comedy,Comedy,Westminster
Z3r9uZKbZL4Ze33ONZFv,"Oh, Mary!",2026-07-13,19:30:00,False,London,-0.12651,51.5048,Trafalgar Theatre,-1,Arts & Theatre,Theatre,Comedy,Westminster
Z3r9uZKbZL4Ze3bd5Zd1,1536,2026-07-13,19:30:00,False,London,-0.128026,51.513006,Ambassadors Theatre,444,Arts & Theatre,Theatre,Drama,Camden
Z3r9uZKbZL4Ze3x2dZeF,Glengarry Glen Ross,2026-07-13,19:30:00,False,London,-0.1090443,51.5019366,The Old Vic,1067,Arts & Theatre,Theatre,Drama,Lambeth
Z3r9uZKbZL4Zef7CNZde,The Mousetrap,2026-07-13,19:30:00,False,London,-0.127672,51.512848,St Martin's Theatre,-1,Arts & Theatre,Theatre,Drama,Camden
ZKr9uZKbZL4Ze310LZeeL,Cabaret,2026-07-13,19:30:00,False,London,-0.123719,51.506975,Playhouse Theatre,865,Arts & Theatre,Theatre,Musical,Westminster
ZKr9uZKbZL4Ze3A4LZekG,Mamma Mia!,2026-07-13,19:30:00,False,London,-0.119423,51.511933,Novello Theatre,1146,Arts & Theatre,Theatre,Musical,Westminster
ZKr9uZKbZL4Ze3eNbZek0,Hamilton,2026-07-13,19:30:00,False,London,-0.142382,51.497012,Victoria Palace Theatre,1550,Arts & Theatre,Theatre,Musical,Westminster
ZKr9uZKbZL4ZeCOjfZk70,Moulin Rouge! The Musical,2026-07-13,19:30:00,False,London,-0.1353998,51.5110543,Piccadilly Theatre,-1,Arts & Theatre,Theatre,Musical,Westminster
ZKr9uZKbZL4Zeo-b6ZeAN,Les Misérables,2026-07-13,19:30:00,False,London,-0.133106,51.512116,Sondheim Theatre,1075,Arts & Theatre,Theatre,Musical,Westminster
Zor9uZKbZL4Ze38NdZq,Relics,2026-07-13,19:30:00,False,London,-0.226795,51.492895,Lyric Theatre Hammersmith,-1,Arts & Theatre,Theatre,Drama,Hammersmith and Fulham
Zor9uZKbZL4Ze3x2vZC,The Oresteia,2026-07-13,19:30:00,False,London,-0.0880061,51.4992073,Bridge Theatre,900,Arts & Theatre,Theatre,Drama,Southwark
15dfZ_djU8t4o,Abba Voyage - VIP Premium Package,2026-07-13,19:45:00,False,London,-0.01362306,51.53327366,ABBA Arena,3000,Music,Pop,Pop,Newham
1AgZkCKGkeS6_zO,ABBA Voyage,2026-07-13,19:45:00,False,London,-0.01362306,51.53327366,ABBA Arena,3000,Music,Pop,Pop,Newham
Z3r9uZKbZL4Ze3OppZe7,The Truth,2026-07-13,20:00:00,False,London,-0.133935,51.511248,Apollo Theatre,775,Arts & Theatre,Theatre,Drama,Westminster
LvZ18Qj_BXSVhYYvOI6iX,DARKSIDE (late show),2026-07-13,21:15:00,False,London,-0.075203,51.551041,EartH,-1,Music,Rock,Alternative Rock,Hackney
G5dzZ_GNnKE5G,Fishies Graduation Party,2026-07-13,23:30:00,False,Leeds,-1.547287,53.802291,O2 Academy Leeds,-1,Music,Rock,Pop,N/A
LvZ18QQ68i8faUYZvFNJd,Newcastle Beyond Van Gogh - Flexi,2026-07-14,10:00:00,False,Newcastle Upon Tyne,-1.623338,54.963809,Utilita Arena Newcastle,11400,Arts & Theatre,Fine Art,Fine Art,N/A
LvZ18QQvI0_GeBZZv3vXq,Newcastle Beyond Van Gogh,2026-07-14,10:00:00,False,Newcastle Upon Tyne,-1.623338,54.963809,Utilita Arena Newcastle,11400,Arts & Theatre,Fine Art,Fine Art,N/A
LvZ18QQvI0_GeBZZv3vXr,Newcastle Beyond Van Gogh,2026-07-14,10:30:00,False,Newcastle Upon Tyne,-1.623338,54.963809,Utilita Arena Newcastle,11400,Arts & Theatre,Fine Art,Fine Art,N/A
LvZ18QKADMbMQ08Zv2JXv,Guided Walks of the Old Course,2026-07-14,11:00:00,False,St Andrews,-2.808659,56.345632,St Andrews Links Clubhouse,-1,Sports,Miscellaneous,Miscellaneous,N/A
LvZ18QQvI0_GeBZZv3vXL,Newcastle Beyond Van Gogh,2026-07-14,11:00:00,False,Newcastle Upon Tyne,-1.623338,54.963809,Utilita Arena Newcastle,11400,Arts & Theatre,Fine Art,Fine Art,N/A
LvZ18QQvI0_GeBZZv3vXO,Newcastle Beyond Van Gogh,2026-07-14,11:30:00,False,Newcastle Upon Tyne,-1.623338,54.963809,Utilita Arena Newcastle,11400,Arts & Theatre,Fine Art,Fine Art,N/A
LvZ18QKADMbMQ08Zv2JXe,Guided Walks of the Old Course,2026-07-14,12:00:00,False,St Andrews,-2.808659,56.345632,St Andrews Links Clubhouse,-1,Sports,Miscellaneous,Miscellaneous,N/A
LvZ18QQvI0_GeBZZv3vX-,Newcastle Beyond Van Gogh,2026-07-14,12:00:00,False,Newcastle Upon Tyne,-1.623338,54.963809,Utilita Arena Newcastle,11400,Arts & Theatre,Fine Art,Fine Art,N/A
LvZ18QQvI0_GeBZZv3vXx,Newcastle Beyond Van Gogh,2026-07-14,12:30:00,False,Newcastle Upon Tyne,-1.623338,54.963809,Utilita Arena Newcastle,11400,Arts & Theatre,Fine Art,Fine Art,N/A
17GOv0G6uYlGZVB,Oran Mor Summer Panto - Big Bad Riding Hood,2026-07-14,13:00:00,False,Glasgow,-4.289157,55.87738,Oran Mor,-1,Arts & Theatre,Miscellaneous Theatre,Miscellaneous Theatre,N/A
LvZ18QQvI0_GeBZZv3vXN,Newcastle Beyond Van Gogh,2026-07-14,13:00:00,False,Newcastle Upon Tyne,-1.623338,54.963809,Utilita Arena Newcastle,11400,Arts & Theatre,Fine Art,Fine Art,N/A
LvZ18QQvI0_GeBZZv3vX0,Newcastle Beyond Van Gogh,2026-07-14,13:30:00,False,Newcastle Upon Tyne,-1.623338,54.963809,Utilita Arena Newcastle,11400,Arts & Theatre,Fine Art,Fine Art,N/A
LvZ18QKADMbMQ08Zv2JXd,Guided Walks of the Old Course,2026-07-14,14:00:00,False,St Andrews,-2.808659,56.345632,St Andrews Links Clubhouse,-1,Sports,Miscellaneous,Miscellaneous,N/A
LvZ18QQvI0_GeBZZv3vXP,Newcastle Beyond Van Gogh,2026-07-14,14:00:00,False,Newcastle Upon Tyne,-1.623338,54.963809,Utilita Arena Newcastle,11400,Arts & Theatre,Fine Art,Fine Art,N/A
17uOv0G65L3JeF2,Sinatra the Musical,2026-07-14,14:30:00,False,London,-0.118841,51.51312,Aldwych Theatre,1200,Arts & Theatre,Theatre,Musical,Westminster
LvZ18QQvI0_GeBZZv3vXJ,Newcastle Beyond Van Gogh,2026-07-14,14:30:00,False,Newcastle Upon Tyne,-1.623338,54.963809,Utilita Arena Newcastle,11400,Arts & Theatre,Fine Art,Fine Art,N/A
LvZ18QQvI0_GeBZZv3vXE,Newcastle Beyond Van Gogh,2026-07-14,15:00:00,False,Newcastle Upon Tyne,-1.623338,54.963809,Utilita Arena Newcastle,11400,Arts & Theatre,Fine Art,Fine Art,N/A
Z3r9uZKbZL4Zef7CNZdd,The Mousetrap,2026-07-14,15:00:00,False,London,-0.127672,51.512848,St Martin's Theatre,-1,Arts & Theatre,Theatre,Drama,Camden
LvZ18QQvI0_GeBZZv3vXI,Newcastle Beyond Van Gogh,2026-07-14,15:30:00,False,Newcastle Upon Tyne,-1.623338,54.963809,Utilita Arena Newcastle,11400,Arts & Theatre,Fine Art,Fine Art,N/A
LvZ18QQvI0_GeBZZv3vXt,Newcastle Beyond Van Gogh,2026-07-14,16:00:00,False,Newcastle Upon Tyne,-1.623338,54.963809,Utilita Arena Newcastle,11400,Arts & Theatre,Fine Art,Fine Art,N/A
LvZ18QQvI0_GeBZZv3vXn,Newcastle Beyond Van Gogh,2026-07-14,16:30:00,False,Newcastle Upon Tyne,-1.623338,54.963809,Utilita Arena Newcastle,11400,Arts & Theatre,Fine Art,Fine Art,N/A
LvZ18QQvI0_GeBZZv3vXl,Newcastle Beyond Van Gogh,2026-07-14,17:00:00,False,Newcastle Upon Tyne,-1.623338,54.963809,Utilita Arena Newcastle,11400,Arts & Theatre,Fine Art,Fine Art,N/A
LvZ18Qj_iw1XM5ZvO3zVR,Psycho Mosher,2026-07-14,18:00:00,False,London,-0.03838,51.475524,New Cross Inn,-1,Music,Rock,Rock,Lewisham
1AdbZbgGkBBbtIB,James Taylor,2026-07-14,18:45:00,False,Edinburgh,-3.201479,55.94897,Edinburgh Castle Esplanade,-1,Music,Rock,Pop,N/A
16gZk3bjKZACee2a,Laura Benanti,2026-07-14,19:00:00,False,London,-0.13409,51.5126,Underbelly Boulevard,-1,Arts & Theatre,Theatre,Musical,Westminster
17GOv0G6C1iE8E6,Dan Parks,2026-07-14,19:00:00,False,Glasgow,-4.23981,55.86034,McChuills,-1,Music,Pop,Pop,N/A
17GOv0G6uYlG8g6,Alexandra Savior,2026-07-14,19:00:00,False,Glasgow,-4.289157,55.87738,Oran Mor,-1,Music,Rock,Pop,N/A
17u8v0G65hWm94P,To Kill A Mockingbird,2026-07-14,19:00:00,False,London,-0.128249,51.511067,Wyndham's Theatre,759,Arts & Theatre,Theatre,Drama,Westminster
17u8v0G65hsMkI1,Carolesdaughter,2026-07-14,19:00:00,False,London,-0.129112,51.515497,The Lower Third,-1,Music,Rock,Alternative Rock,Camden
17u8v0G6udreuEi,Pre-Season: Bristol Rovers V Leicester City,2026-07-14,19:00:00,False,Bristol,-2.583597,51.485848,Memorial Stadium,-1,Sports,Soccer,Soccer,N/A
17uOv0G6G5tocNM,Alexandra Savior,2026-07-14,19:00:00,False,Glasgow,-4.289157,55.87738,Oran Mor,-1,Music,Rock,Pop,N/A
17uYv0G65IC9g9T,Stranger Things: The First Shadow,2026-07-14,19:00:00,False,London,-0.129497,51.514387,Phoenix Theatre,-1,Arts & Theatre,Theatre,Drama,Camden
1AMZkufGkd1Mbof,The Producers,2026-07-14,19:00:00,False,London,-0.127819,51.509954,Garrick Theatre,718,Arts & Theatre,Theatre,Musical,Westminster
1AdjZ_dGkBbDxk4,Sunny Day Real Estate,2026-07-14,19:00:00,False,Manchester,-2.239563,53.486725,Manchester New Century Hall,-1,Music,Rock,Pop,N/A
1AdjZbSGkD0annN,Matilda The Musical,2026-07-14,19:00:00,False,London,-0.126407,51.51351,Cambridge Theatre,1227,Arts & Theatre,Theatre,Musical,Camden
1AwZko0Gkei8YYF,Jon B. - Restaurant,2026-07-14,19:00:00,False,London,-0.143343,51.53859,Jazz Cafe,440,Music,R&B,R&B,Camden
1AwZko0Gkel5ORv,Jon B.,2026-07-14,19:00:00,False,London,-0.143343,51.53859,Jazz Cafe,440,Music,R&B,R&B,Camden
1adbZbUpAvNZdu5v,Bat Sabbath,2026-07-14,19:00:00,False,Manchester,-2.2504935,53.4741834,Rebellion Manchester,-1,Music,Undefined,Undefined,N/A
1adjZbgrpqUZd285,My Neighbour Totoro,2026-07-14,19:00:00,False,London,-0.119645,51.51429,Gillian Lynne Theatre,1295,Arts & Theatre,Theatre,Drama,Westminster
1ku8vNuNGA2wXxk,Oliver!,2026-07-14,19:00:00,False,London,-0.13324,51.512019,Gielgud Theatre,986,Arts & Theatre,Theatre,Musical,Westminster
G5vHZ_dKhb0L3,Action! Presents: Garbage + Support,2026-07-14,19:00:00,False,London,-0.151324,51.543051,Roundhouse,-1,Music,Rock,Alternative Rock,Camden
LvZ18Q3hQxXpDVZZvPECo,Comedy in Your Eye - Stand up Comedy in Camden Town,2026-07-14,19:00:00,False,London,-0.1415,51.54102,Comedy In Your Eye,-1,Arts & Theatre,Theatre,Comedy,Camden
LvZ18QLGPkHJc28ZM-exs,Henge,2026-07-14,19:00:00,False,Dover,1.302573,51.132381,The Booking Hall,-1,Music,Rock,Electronic,N/A
LvZ18QhUZflvpj8ZV1ulD,A THOUSAND HORSES  Plus guests,2026-07-14,19:00:00,False,Wolverhampton,-2.1309853,52.5786863,KK's Steel Mill,-1,Music,Rock,Pop,N/A
LvZ18QhYGbM8RuYZ0-V2m,Anthony Gomes “Praise The Loud” 2026 World Tour,2026-07-14,19:00:00,False,Inverness,-4.225917,57.477739,An Seomar,-1,Music,Blues,Blues,N/A
LvZ18QxdMeIxPpZZzYhnQ,World Cup 2026: SEMI FINAL,2026-07-14,19:00:00,False,London,-0.115021,51.461845,Brixton Storeys,-1,Sports,Soccer,Soccer,Lambeth
Z3r9uZKbZL4Ze3x2vZdL,The Oresteia,2026-07-14,19:00:00,False,London,-0.0880061,51.4992073,Bridge Theatre,900,Arts & Theatre,Theatre,Drama,Southwark
Zor9uZKbZL4Zef7CLZa,Allegra,2026-07-14,19:00:00,False,London,-0.131851,51.509326,The Harold Pinter Theatre ,-1,Arts & Theatre,Theatre,Comedy,Westminster
Zor9uZKbZL4ZefdeAZj,Arcadia,2026-07-14,19:00:00,False,London,-0.127522,51.510174,Duke of Yorks Theatre,640,Arts & Theatre,Theatre,Drama,Westminster
17u8v0G65IKUlz-,The Book Of Mormon,2026-07-14,19:30:00,False,London,-0.131809,51.510009,Prince of Wales Theatre,1160,Arts & Theatre,Theatre,Musical,Westminster
17u8v0G65rtKSOY,Cyrano de Bergerac,2026-07-14,19:30:00,False,London,-0.1284654,51.5142805,Noel Coward Theatre,942,Arts & Theatre,Theatre,Drama,Camden
17uOv0G65L3w3aQ,Sinatra the Musical,2026-07-14,19:30:00,False,London,-0.118841,51.51312,Aldwych Theatre,1200,Arts & Theatre,Theatre,Musical,Westminster
17uOv0G6GpKDM1E,Moulin Rouge! The Musical,2026-07-14,19:30:00,False,Liverpool,-2.978335,53.40891,Liverpool Empire Theatre,2350,Arts & Theatre,Theatre,Musical,N/A
1AMZkGUGkdDuBtP,Phantom of the Opera,2026-07-14,19:30:00,False,London,-0.132044,51.508133,His Majesty's Theatre,1216,Arts & Theatre,Theatre,Musical,Westminster
1AMZko0GkeTGkAv,The Hunger Games On Stage,2026-07-14,19:30:00,False,London,-0.0134276,51.5035337,Troubadour Canary Wharf Theatre,-1,Arts & Theatre,Theatre,Drama,Tower Hamlets
1AMZkuJGkegSALD,AVENUE Q,2026-07-14,19:30:00,False,London,-0.126119,51.516285,Shaftesbury Theatre,-1,Arts & Theatre,Theatre,Musical,Camden
1AUZkGyGkeTDyBB,Wicked,2026-07-14,19:30:00,False,London,-0.142691,51.495785,Apollo Victoria Theatre,2328,Arts & Theatre,Theatre,Musical,Westminster
1AdbZ_aGkSrMMg_,Jinkx Monsoon: Speaking of Witch,2026-07-14,19:30:00,False,Edinburgh,-3.205069,55.947456,Usher Hall,-1,Arts & Theatre,Performance Art,Performance Art,N/A
1AdbZbSGkDkhtaM,The Devil Wears Prada,2026-07-14,19:30:00,False,London,-0.129679,51.516971,Dominion Theatre,2083,Arts & Theatre,Theatre,Musical,Camden
1AdfZbgGkBixIk2,Beetlejuice,2026-07-14,19:30:00,False,London,-0.130964,51.513763,Prince Edward Theatre,1618,Arts & Theatre,Theatre,Musical,Westminster
1AdjZbIGkRDMVwm,The Play That Goes Wrong,2026-07-14,19:30:00,False,London,-0.119732,51.512118,Duchess Theatre,494,Arts & Theatre,Theatre,Comedy,Westminster
1AdjZbUGkz2vnF7,Disney's Hercules,2026-07-14,19:30:00,False,London,-0.120258,51.513008,Theatre Royal Drury Lane,2220,Arts & Theatre,Theatre,Musical,Westminster
1AgZkoaGken-0-w,The Boy Who Harnessed The Wind,2026-07-14,19:30:00,False,London,-0.130436,51.515607,sohoplace,-1,Arts & Theatre,Theatre,Drama,Westminster
G5vHZbSeLopAa,Rumours of Fleetwood Mac,2026-07-14,19:30:00,False,Portsmouth,-1.092871,50.797529,Portsmouth Guildhall,-1,Music,Undefined,Undefined,N/A
G5vHZbi2g9wIy,Operation Mincemeat: A New Musical,2026-07-14,19:30:00,False,Northampton,-0.894129,52.236412,Royal and Derngate,-1,Arts & Theatre,Theatre,Musical,N/A
LvZ18Q8cbi_zn2OZvxVtc,The Evolution Of Magic,2026-07-14,19:30:00,False,Blackpool,-3.053354,53.792539,Horseshoe Showbar,-1,Arts & Theatre,Magic & Illusion,Magic,N/A
LvZ18QKhlXhzkqOZlYZp_,Osees,2026-07-14,19:30:00,False,Leeds,-1.513727,53.797242,Leeds Irish Centre,-1,Music,Rock,Pop,N/A
LvZ18QO9H-DV928ZvJhcN,Anatole Muster,2026-07-14,19:30:00,False,London,-0.07665,51.54879,Vortex Jazz Club,-1,Music,Jazz,Jazz,Hackney
LvZ18QbENQqww8ZZP5RgL,The Van Morrison Alumni Band,2026-07-14,19:30:00,False,London,-0.11828309,51.5099107,Emerald Theatre,-1,Music,Rock,Pop,Westminster
LvZ18Qx4U3GVA5ZvGAfQK,Paul Foot,2026-07-14,19:30:00,False,Leeds,-1.5329,53.797526,Wardrobe,-1,Arts & Theatre,Comedy,Comedy,N/A
Z3r9uZKbZL4Ze33ONZFe,"Oh, Mary!",2026-07-14,19:30:00,False,London,-0.12651,51.5048,Trafalgar Theatre,-1,Arts & Theatre,Theatre,Comedy,Westminster
Z3r9uZKbZL4Ze3OLLZer,Dark of the Moon,2026-07-14,19:30:00,False,London,-0.124122,51.508087,Charing Cross Theatre,265,Arts & Theatre,Theatre,Musical,Westminster
Z3r9uZKbZL4Ze3bd5Zd5,1536,2026-07-14,19:30:00,False,London,-0.128026,51.513006,Ambassadors Theatre,444,Arts & Theatre,Theatre,Drama,Camden
Z3r9uZKbZL4Ze3x2dZea,Glengarry Glen Ross,2026-07-14,19:30:00,False,London,-0.1090443,51.5019366,The Old Vic,1067,Arts & Theatre,Theatre,Drama,Lambeth
Z3r9uZKbZL4Zef7CNZd7,The Mousetrap,2026-07-14,19:30:00,False,London,-0.127672,51.512848,St Martin's Theatre,-1,Arts & Theatre,Theatre,Drama,Camden
Z3r9uZKbZL4Zefe5NZev,Hot Mess: A New Musical,2026-07-14,19:30:00,False,London,-0.1421127,51.4987242,The Other Palace,-1,Arts & Theatre,Theatre,Musical,Westminster
ZKr9uZKbZL4Ze310LZeeO,Cabaret,2026-07-14,19:30:00,False,London,-0.123719,51.506975,Playhouse Theatre,865,Arts & Theatre,Theatre,Musical,Westminster
ZKr9uZKbZL4Ze3A4LZeku,Mamma Mia!,2026-07-14,19:30:00,False,London,-0.119423,51.511933,Novello Theatre,1146,Arts & Theatre,Theatre,Musical,Westminster
ZKr9uZKbZL4Ze3eNbZe6v,Hamilton,2026-07-14,19:30:00,False,London,-0.142382,51.497012,Victoria Palace Theatre,1550,Arts & Theatre,Theatre,Musical,Westminster
ZKr9uZKbZL4Ze8-4-ZdaC,Hadestown,2026-07-14,19:30:00,False,London,-0.133935,51.511248,Lyric Theatre,967,Arts & Theatre,Theatre,Musical,Westminster
ZKr9uZKbZL4ZeCOjfZkAv,Moulin Rouge! The Musical,2026-07-14,19:30:00,False,London,-0.1353998,51.5110543,Piccadilly Theatre,-1,Arts & Theatre,Theatre,Musical,Westminster
ZKr9uZKbZL4ZeCj6jZkFA,Disney's The Lion King,2026-07-14,19:30:00,False,London,-0.120008,51.511718,Lyceum Theatre,2100,Arts & Theatre,Theatre,Musical,Westminster
ZKr9uZKbZL4Zeo-b6ZeA0,Les Misérables,2026-07-14,19:30:00,False,London,-0.133106,51.512116,Sondheim Theatre,1075,Arts & Theatre,Theatre,Musical,Westminster
ZKr9uZKbZL4ZeorGbZeaN,Titanique,2026-07-14,19:30:00,False,London,-0.133724,51.509707,Criterion Theatre,-1,Arts & Theatre,Theatre,Musical,Westminster
Zor9uZKbZL4Ze38NdZr,Relics,2026-07-14,19:30:00,False,London,-0.226795,51.492895,Lyric Theatre Hammersmith,-1,Arts & Theatre,Theatre,Drama,Hammersmith and Fulham
LvZ18QhGz5HZKo8ZVxiiC,GONG,2026-07-14,20:00:00,False,St Albans,-0.329006,51.750295,The Horn,-1,Music,Rock,Pop,N/A
Z3r9uZKbZL4Ze3OppZeA,The Truth,2026-07-14,20:00:00,False,London,-0.133935,51.511248,Apollo Theatre,775,Arts & Theatre,Theatre,Drama,Westminster
ZKr9uZKbZL4ZeCNuaZ6A4,SIX The Musical,2026-07-14,20:00:00,False,London,-0.12265,51.510546,Vaudeville Theatre,690,Arts & Theatre,Theatre,Musical,Westminster
LvZ18Qx5QWDhLWOvGf41H,The Definitive Rat Pack,2026-07-14,20:30:00,False,London,-0.022271,51.505252,"Boisdale, Canary Wharf",-1,Music,Jazz,Jazz,Tower Hamlets
LvZ18QQ68i8faUYZvFNJ7,Newcastle Beyond Van Gogh - Flexi,2026-07-15,10:00:00,False,Newcastle Upon Tyne,-1.623338,54.963809,Utilita Arena Newcastle,11400,Arts & Theatre,Fine Art,Fine Art,N/A
LvZ18QQvI0_GeBZZv3vXi,Newcastle Beyond Van Gogh,2026-07-15,10:00:00,False,Newcastle Upon Tyne,-1.623338,54.963809,Utilita Arena Newcastle,11400,Arts & Theatre,Fine Art,Fine Art,N/A
LvZ18QQvI0_GeBZZv3vXc,Newcastle Beyond Van Gogh,2026-07-15,10:30:00,False,Newcastle Upon Tyne,-1.623338,54.963809,Utilita Arena Newcastle,11400,Arts & Theatre,Fine Art,Fine Art,N/A
LvZ18QKADMbMQ08Zv2JX7,Guided Walks of the Old Course,2026-07-15,11:00:00,False,St Andrews,-2.808659,56.345632,St Andrews Links Clubhouse,-1,Sports,Miscellaneous,Miscellaneous,N/A
LvZ18QQvI0_GeBZZv3vXm,Newcastle Beyond Van Gogh,2026-07-15,11:00:00,False,Newcastle Upon Tyne,-1.623338,54.963809,Utilita Arena Newcastle,11400,Arts & Theatre,Fine Art,Fine Art,N/A
LvZ18QQvI0_GeBZZv3vXR,Newcastle Beyond Van Gogh,2026-07-15,11:30:00,False,Newcastle Upon Tyne,-1.623338,54.963809,Utilita Arena Newcastle,11400,Arts & Theatre,Fine Art,Fine Art,N/A
LvZ18QKADMbMQ08Zv2JXA,Guided Walks of the Old Course,2026-07-15,12:00:00,False,St Andrews,-2.808659,56.345632,St Andrews Links Clubhouse,-1,Sports,Miscellaneous,Miscellaneous,N/A
LvZ18QQvI0_GeBZZv3vXY,Newcastle Beyond Van Gogh,2026-07-15,12:00:00,False,Newcastle Upon Tyne,-1.623338,54.963809,Utilita Arena Newcastle,11400,Arts & Theatre,Fine Art,Fine Art,N/A
LvZ18QQvI0_GeBZZv3vXs,Newcastle Beyond Van Gogh,2026-07-15,12:30:00,False,Newcastle Upon Tyne,-1.623338,54.963809,Utilita Arena Newcastle,11400,Arts & Theatre,Fine Art,Fine Art,N/A
17GOv0G6uYlGOgr,Oran Mor Summer Panto - Big Bad Riding Hood,2026-07-15,13:00:00,False,Glasgow,-4.289157,55.87738,Oran Mor,-1,Arts & Theatre,Miscellaneous Theatre,Miscellaneous Theatre,N/A
LvZ18QQvI0_GeBZZv3vXw,Newcastle Beyond Van Gogh,2026-07-15,13:00:00,False,Newcastle Upon Tyne,-1.623338,54.963809,Utilita Arena Newcastle,11400,Arts & Theatre,Fine Art,Fine Art,N/A
LvZ18QQvI0_GeBZZv3vXS,Newcastle Beyond Van Gogh,2026-07-15,13:30:00,False,Newcastle Upon Tyne,-1.623338,54.963809,Utilita Arena Newcastle,11400,Arts & Theatre,Fine Art,Fine Art,N/A
Zor9uZKbZL4ZefdeAZq,Arcadia,2026-07-15,13:30:00,False,London,-0.127522,51.510174,Duke of Yorks Theatre,640,Arts & Theatre,Theatre,Drama,Westminster
17u8v0G65hWBMpQ,To Kill A Mockingbird,2026-07-15,14:00:00,False,London,-0.128249,51.511067,Wyndham's Theatre,759,Arts & Theatre,Theatre,Drama,Westminster
17u8v0G65rtLS-5,Cyrano de Bergerac,2026-07-15,14:00:00,False,London,-0.1284654,51.5142805,Noel Coward Theatre,942,Arts & Theatre,Theatre,Drama,Camden
1AdjZbSGkD0pQlK,Matilda The Musical,2026-07-15,14:00:00,False,London,-0.126407,51.51351,Cambridge Theatre,1227,Arts & Theatre,Theatre,Musical,Camden
1AdjZbsGkiuEN60,Harry Potter and the Cursed Child - Parts 1 & 2 Wed 14:00 & 19:00,2026-07-15,14:00:00,False,London,-0.1297073,51.5131668,Palace Theatre,1743,Arts & Theatre,Theatre,Drama,Westminster
LvZ18QKADMbMQ08Zv2JXk,Guided Walks of the Old Course,2026-07-15,14:00:00,False,St Andrews,-2.808659,56.345632,St Andrews Links Clubhouse,-1,Sports,Miscellaneous,Miscellaneous,N/A
LvZ18QQvI0_GeBZZv3vXV,Newcastle Beyond Van Gogh,2026-07-15,14:00:00,False,Newcastle Upon Tyne,-1.623338,54.963809,Utilita Arena Newcastle,11400,Arts & Theatre,Fine Art,Fine Art,N/A
ZKr9uZKbZL4Ze310LZee-,Cabaret,2026-07-15,14:00:00,False,London,-0.123719,51.506975,Playhouse Theatre,865,Arts & Theatre,Theatre,Musical,Westminster
Zor9uZKbZL4Zef7CLZ1,Allegra,2026-07-15,14:00:00,False,London,-0.131851,51.509326,The Harold Pinter Theatre ,-1,Arts & Theatre,Theatre,Comedy,Westminster
1AMZkGUGkdDQBtM,Phantom of the Opera,2026-07-15,14:30:00,False,London,-0.132044,51.508133,His Majesty's Theatre,1216,Arts & Theatre,Theatre,Musical,Westminster
1AUZkGyGkdZa_Di,Wicked,2026-07-15,14:30:00,False,London,-0.142691,51.495785,Apollo Victoria Theatre,2328,Arts & Theatre,Theatre,Musical,Westminster
1AdbZbSGkDkI_1F,The Devil Wears Prada,2026-07-15,14:30:00,False,London,-0.129679,51.516971,Dominion Theatre,2083,Arts & Theatre,Theatre,Musical,Camden
1ku8vNuNGA2Tmxp,Oliver!,2026-07-15,14:30:00,False,London,-0.13324,51.512019,Gielgud Theatre,986,Arts & Theatre,Theatre,Musical,Westminster
G5vHZbi2gbet1,Operation Mincemeat: A New Musical,2026-07-15,14:30:00,False,Northampton,-0.894129,52.236412,Royal and Derngate,-1,Arts & Theatre,Theatre,Musical,N/A
LvZ18QQvI0_GeBZZv3vXg,Newcastle Beyond Van Gogh,2026-07-15,14:30:00,False,Newcastle Upon Tyne,-1.623338,54.963809,Utilita Arena Newcastle,11400,Arts & Theatre,Fine Art,Fine Art,N/A
Z3r9uZKbZL4Ze3OLLZeL,Dark of the Moon,2026-07-15,14:30:00,False,London,-0.124122,51.508087,Charing Cross Theatre,265,Arts & Theatre,Theatre,Musical,Westminster
Z3r9uZKbZL4Ze3bd5ZdG,1536,2026-07-15,14:30:00,False,London,-0.128026,51.513006,Ambassadors Theatre,444,Arts & Theatre,Theatre,Drama,Camden
Z3r9uZKbZL4Ze3x2dZe1,Glengarry Glen Ross,2026-07-15,14:30:00,False,London,-0.1090443,51.5019366,The Old Vic,1067,Arts & Theatre,Theatre,Drama,Lambeth
ZKr9uZKbZL4ZeCj6jZkFk,Disney's The Lion King,2026-07-15,14:30:00,False,London,-0.120008,51.511718,Lyceum Theatre,2100,Arts & Theatre,Theatre,Musical,Westminster
Zor9uZKbZL4Ze38NdZL,Relics,2026-07-15,14:30:00,False,London,-0.226795,51.492895,Lyric Theatre Hammersmith,-1,Arts & Theatre,Theatre,Drama,Hammersmith and Fulham
LvZ18QQvI0_GeBZZv3vXU,Newcastle Beyond Van Gogh,2026-07-15,15:00:00,False,Newcastle Upon Tyne,-1.623338,54.963809,Utilita Arena Newcastle,11400,Arts & Theatre,Fine Art,Fine Art,N/A
Z3r9uZKbZL4Ze3OppZek,The Truth,2026-07-15,15:00:00,False,London,-0.133935,51.511248,Apollo Theatre,775,Arts & Theatre,Theatre,Drama,Westminster
LvZ18QQvI0_GeBZZv3vXM,Newcastle Beyond Van Gogh,2026-07-15,15:30:00,False,Newcastle Upon Tyne,-1.623338,54.963809,Utilita Arena Newcastle,11400,Arts & Theatre,Fine Art,Fine Art,N/A
LvZ18QQvI0_GeBZZv3vXz,Newcastle Beyond Van Gogh,2026-07-15,16:00:00,False,Newcastle Upon Tyne,-1.623338,54.963809,Utilita Arena Newcastle,11400,Arts & Theatre,Fine Art,Fine Art,N/A
LvZ18QQvI0_GeBZZv3vXy,Newcastle Beyond Van Gogh,2026-07-15,16:30:00,False,Newcastle Upon Tyne,-1.623338,54.963809,Utilita Arena Newcastle,11400,Arts & Theatre,Fine Art,Fine Art,N/A
1AdfZbwGkTiPesV,System Of A Down,2026-07-15,17:00:00,False,London,-0.06787,51.600819,Tottenham Hotspur Stadium,62850,Music,Metal,Nu-Metal,Haringey
LvZ18QQvI0_GeBZZv3vXB,Newcastle Beyond Van Gogh,2026-07-15,17:00:00,False,Newcastle Upon Tyne,-1.623338,54.963809,Utilita Arena Newcastle,11400,Arts & Theatre,Fine Art,Fine Art,N/A
G5vHZ_C6tzXcK,Road To Victory - SEMI-FINAL,2026-07-15,17:30:00,False,Manchester,-2.256881,53.476524,Castlefield Bowl,-1,Sports,Soccer,Soccer,N/A
LvZ18Q0yvVWhW3lcBkZ9F,World Cup Semi Final Fanzone,2026-07-15,17:30:00,False,Newcastle Upon Tyne,-1.6308,54.971939,NX,-1,Sports,Soccer,Soccer,N/A
LvZ18Qq0m9gVB6Zv1RZvL,Jon B. - Early Show,2026-07-15,17:30:00,False,London,-0.143343,51.53859,Jazz Cafe,440,Music,R&B,R&B,Camden
G5vHZ_AIYxh9p,Eden Sessions: CMAT,2026-07-15,18:00:00,False,St Austell,-4.742786,50.359603,Eden Project,-1,Music,Rock,Pop,N/A
LvZ18QPdHfOwch_BCYSfg,World Cup SEMI FINALS,2026-07-15,18:00:00,False,Bristol,-2.59214808,51.45666317,Electric Bristol,-1,Sports,Soccer,Soccer,N/A
LvZ18QhLfJlGN3ZZ0L_0H,The SugarHill Gang Wed 15 July 2026 Performing Live Jam House Birmingham,2026-07-15,18:00:00,False,Birmingham,-1.904386,52.48509613,The Jam House Birmingham,-1,Music,Hip-Hop/Rap,Urban,N/A
LvZ18Qj_hJNQpzOZ0OMbe,Crushed Veneer,2026-07-15,18:00:00,False,London,-0.03838,51.475524,New Cross Inn,-1,Music,Alternative,Alternative,Lewisham
1AMZkGYGkdFdtrO,Rumours of Fleetwood Mac,2026-07-15,18:30:00,False,Tunbridge Wells,0.26595,51.132133,Tunbridge Wells Assembly Hall,-1,Music,Undefined,Undefined,N/A
1AdfZ_eGkDl69yP,Mamma Mia! The Party,2026-07-15,18:30:00,False,London,0.005519,51.501581,The O2,20000,Arts & Theatre,Theatre,Musical,Greenwich
G5dzZ_CL9x7p8,WORLD CUP 2026: ENGLAND VS TBC - SEMI FINAL,2026-07-15,18:30:00,False,Leeds,-1.547287,53.802291,O2 Academy Leeds,-1,Sports,Soccer,Soccer,N/A
G5dzZ_CrIn345,WORLD CUP 2026: ENGLAND VS TBC - SEMI FINAL ,2026-07-15,18:30:00,False,Newcastle Upon Tyne,-1.610213,54.977346,O2 City Hall Newcastle,-1,Miscellaneous,Community/Civic,Community/Civic,N/A
G5dzZ_CrWlK8c,WORLD CUP 2026: ENGLAND VS TBC - SEMI FINAL,2026-07-15,18:30:00,False,Birmingham,-1.887562,52.475756,O2 Institute Birmingham,-1,Sports,Soccer,Soccer,N/A
G5vHZ_6nR8UvL,Public Image Ltd,2026-07-15,18:30:00,False,Salisbury,-1.800462,51.070294,Salisbury City Hall,-1,Music,Rock,Alternative Rock,N/A
LvZ18Qoi123C05OZlcuOu,D.R.I / Dirty Rotten Imbeciles,2026-07-15,18:30:00,False,Glasgow,,,SLAY,-1,Music,Rock,Punk,N/A
17u8v0G6uJQh66B,CHAT NOIR!,2026-07-15,18:45:00,False,London,-0.20485809,51.4905226,The Lost Estate,-1,Arts & Theatre,Variety,Cabaret,Hammersmith and Fulham
16djZbgrpG7lkWQ,My Neighbour Totoro,2026-07-15,19:00:00,False,London,-0.119645,51.51429,Gillian Lynne Theatre,1295,Arts & Theatre,Theatre,Drama,Westminster
17u8v0G61NAdfR_,Avery Cochrane,2026-07-15,19:00:00,False,London,-0.057532,51.547992,London Oslo,-1,Music,Pop,Electro Pop,Hackney
17u8v0G65hX699O,To Kill A Mockingbird,2026-07-15,19:00:00,False,London,-0.128249,51.511067,Wyndham's Theatre,759,Arts & Theatre,Theatre,Drama,Westminster
17u8v0G6uMiQJiX,Belle Livingstone's 58th Street Country Club,2026-07-15,19:00:00,False,London,-0.06736413,51.47289512,Belle Livingstone's 58th Street Country Club,-1,Music,Jazz,Jazz,Southwark
17uYv0G65IC04be,Stranger Things: The First Shadow,2026-07-15,19:00:00,False,London,-0.129497,51.514387,Phoenix Theatre,-1,Arts & Theatre,Theatre,Drama,Camden
1AUZkCoGkdawI88,Charlie Puth - Whatever's Clever! World Tour,2026-07-15,19:00:00,False,London,-0.224423,51.490693,Eventim Apollo,3500,Music,Rock,Pop,Hammersmith and Fulham
1AdFZbgGkSLfOTB,Bat Sabbath,2026-07-15,19:00:00,False,Glasgow,,,The Cathouse,-1,Music,Undefined,Undefined,N/A
1AdjZbSGkD0N1lU,Matilda The Musical,2026-07-15,19:00:00,False,London,-0.126407,51.51351,Cambridge Theatre,1227,Arts & Theatre,Theatre,Musical,Camden
1AwZkowGkdtPYwF,"Anthony Gomes ""Praise the Loud"" 2026 World Tour",2026-07-15,19:00:00,False,Glasgow,-4.289157,55.87738,Oran Mor,-1,Music,Rock,Pop,N/A
1agZk3bj9ZoZe86,Laura Benanti,2026-07-15,19:00:00,False,London,-0.13409,51.5126,Underbelly Boulevard,-1,Arts & Theatre,Theatre,Musical,Westminster
G5dzZ_FTfiVtV,Thee Sacred Souls,2026-07-15,19:00:00,False,Brighton,-0.146331,50.82153,The Brighton Centre,-1,Music,R&B,Soul,N/A
G5dzZbzkDkp1P,Boys Like Girls,2026-07-15,19:00:00,False,Glasgow,-4.2587809,55.8504496,O2 Academy Glasgow,-1,Music,Rock,Alternative Rock,N/A
G5vHZ_6k-gxwr,December 10,2026-07-15,19:00:00,False,Wolverhampton,-2.130802,52.586653,University of Wolverhampton at The Wulfrun Hall,-1,Music,Pop,Electro Pop,N/A
LvZ18Q-h9FV_UoOvOIIAi,EYOE Recommends: In Aid of War Child,2026-07-15,19:00:00,False,London,-0.070096,51.553073,Shacklewell Arms,-1,Music,Pop,Pop,Hackney
LvZ18QxdzQYlI7YZ0ucNo,World Cup 2026: SEMI FINAL,2026-07-15,19:00:00,False,London,-0.115021,51.461845,Brixton Storeys,-1,Sports,Soccer,Soccer,Lambeth
Z3r9uZKbZL4Ze3x2vZdO,The Oresteia,2026-07-15,19:00:00,False,London,-0.0880061,51.4992073,Bridge Theatre,900,Arts & Theatre,Theatre,Drama,Southwark
ZKr9uZKbZL4Ze83obZA1b,Magic Mike Live,2026-07-15,19:00:00,False,London,-0.129629,51.511196,The Theatre at the Hippodrome Casino,180,Arts & Theatre,Miscellaneous,Miscellaneous,Westminster
Zor9uZKbZL4Zef7CLZ5,Allegra,2026-07-15,19:00:00,False,London,-0.131851,51.509326,The Harold Pinter Theatre ,-1,Arts & Theatre,Theatre,Comedy,Westminster
Zor9uZKbZL4ZefdeAZr,Arcadia,2026-07-15,19:00:00,False,London,-0.127522,51.510174,Duke of Yorks Theatre,640,Arts & Theatre,Theatre,Drama,Westminster
17u8v0G65IfeDyA,The Book Of Mormon,2026-07-15,19:30:00,False,London,-0.131809,51.510009,Prince of Wales Theatre,1160,Arts & Theatre,Theatre,Musical,Westminster
17u8v0G65QxKxnf,Trainspotting the Musical,2026-07-15,19:30:00,False,London,-0.13128,51.50884,Theatre Royal Haymarket,888,Arts & Theatre,Theatre,Musical,Westminster
17u8v0G65rtidxh,Cyrano de Bergerac,2026-07-15,19:30:00,False,London,-0.1284654,51.5142805,Noel Coward Theatre,942,Arts & Theatre,Theatre,Drama,Camden
17uOv0G65L3X31S,Sinatra the Musical,2026-07-15,19:30:00,False,London,-0.118841,51.51312,Aldwych Theatre,1200,Arts & Theatre,Theatre,Musical,Westminster
17uOv0G6GpfF6Gv,Moulin Rouge! The Musical,2026-07-15,19:30:00,False,Liverpool,-2.978335,53.40891,Liverpool Empire Theatre,2350,Arts & Theatre,Theatre,Musical,N/A
1AMZkGUGkdDEBnf,Phantom of the Opera,2026-07-15,19:30:00,False,London,-0.132044,51.508133,His Majesty's Theatre,1216,Arts & Theatre,Theatre,Musical,Westminster
1AMZko0GkeTbUAp,The Hunger Games On Stage,2026-07-15,19:30:00,False,London,-0.0134276,51.5035337,Troubadour Canary Wharf Theatre,-1,Arts & Theatre,Theatre,Drama,Tower Hamlets
1AMZkuJGkeUZ4ON,AVENUE Q,2026-07-15,19:30:00,False,London,-0.126119,51.516285,Shaftesbury Theatre,-1,Arts & Theatre,Theatre,Musical,Camden
1AMZkufGkd57Ios,The Producers,2026-07-15,19:30:00,False,London,-0.127819,51.509954,Garrick Theatre,718,Arts & Theatre,Theatre,Musical,Westminster
1AUZkGyGkdZpyH4,Wicked,2026-07-15,19:30:00,False,London,-0.142691,51.495785,Apollo Victoria Theatre,2328,Arts & Theatre,Theatre,Musical,Westminster
1AdbZbSGkDkg_1z,The Devil Wears Prada,2026-07-15,19:30:00,False,London,-0.129679,51.516971,Dominion Theatre,2083,Arts & Theatre,Theatre,Musical,Camden
1AdfZbgGkBiRIag,Beetlejuice,2026-07-15,19:30:00,False,London,-0.130964,51.513763,Prince Edward Theatre,1618,Arts & Theatre,Theatre,Musical,Westminster
1AdjZbIGkRH7Vwg,The Play That Goes Wrong,2026-07-15,19:30:00,False,London,-0.119732,51.512118,Duchess Theatre,494,Arts & Theatre,Theatre,Comedy,Westminster
1AdjZbUGkz2CBFV,Disney's Hercules,2026-07-15,19:30:00,False,London,-0.120258,51.513008,Theatre Royal Drury Lane,2220,Arts & Theatre,Theatre,Musical,Westminster
1AgZkoaGkenR7xO,The Boy Who Harnessed The Wind,2026-07-15,19:30:00,False,London,-0.130436,51.515607,sohoplace,-1,Arts & Theatre,Theatre,Drama,Westminster
1Fu8vNu0ZsZ72a18,Oliver!,2026-07-15,19:30:00,False,London,-0.13324,51.512019,Gielgud Theatre,986,Arts & Theatre,Theatre,Musical,Westminster
G5vHZ_6Ethysw,Greenwich Comedy Garden: Tom Allen & Ivo Graham,2026-07-15,19:30:00,False,London,-0.009034,51.482772,Old Royal Naval College,-1,Arts & Theatre,Comedy,Comedy,Greenwich
G5vHZbi2gb3tC,Operation Mincemeat: A New Musical,2026-07-15,19:30:00,False,Northampton,-0.894129,52.236412,Royal and Derngate,-1,Arts & Theatre,Theatre,Musical,N/A
LvZ18Q8cbi_zn2OZvxVtm,The Evolution Of Magic,2026-07-15,19:30:00,False,Blackpool,-3.053354,53.792539,Horseshoe Showbar,-1,Arts & Theatre,Magic & Illusion,Magic,N/A
LvZ18QOzoMyzjLZvO0B2H,Les Caravanes,2026-07-15,19:30:00,False,"Newcastle upon Tyne, NE1 2PQ",-1.59238,54.974933,Cluny 2,-1,Music,Folk,Folk,N/A
LvZ18QQvGdAHtx8ZlYxfS,Osees,2026-07-15,19:30:00,False,Leeds,-1.513727,53.797242,Leeds Irish Centre,-1,Music,Rock,Pop,N/A
LvZ18Qx4zCeWLA8vOLpqE,Flo & Joan,2026-07-15,19:30:00,False,Leeds,-1.5329,53.797526,Wardrobe,-1,Arts & Theatre,Comedy,Comedy,N/A
Z3r9uZKbZL4Ze33ONZFd,"Oh, Mary!",2026-07-15,19:30:00,False,London,-0.12651,51.5048,Trafalgar Theatre,-1,Arts & Theatre,Theatre,Comedy,Westminster
Z3r9uZKbZL4Ze3OLLZeO,Dark of the Moon,2026-07-15,19:30:00,False,London,-0.124122,51.508087,Charing Cross Theatre,265,Arts & Theatre,Theatre,Musical,Westminster
Z3r9uZKbZL4Ze3bd5Zdu,1536,2026-07-15,19:30:00,False,London,-0.128026,51.513006,Ambassadors Theatre,444,Arts & Theatre,Theatre,Drama,Camden
Z3r9uZKbZL4Ze3x2dZe5,Glengarry Glen Ross,2026-07-15,19:30:00,False,London,-0.1090443,51.5019366,The Old Vic,1067,Arts & Theatre,Theatre,Drama,Lambeth
Z3r9uZKbZL4Zef7CNZdA,The Mousetrap,2026-07-15,19:30:00,False,London,-0.127672,51.512848,St Martin's Theatre,-1,Arts & Theatre,Theatre,Drama,Camden
Z3r9uZKbZL4Zefe5NZee,Hot Mess: A New Musical,2026-07-15,19:30:00,False,London,-0.1421127,51.4987242,The Other Palace,-1,Arts & Theatre,Theatre,Musical,Westminster
ZKr9uZKbZL4Ze310LZeex,Cabaret,2026-07-15,19:30:00,False,London,-0.123719,51.506975,Playhouse Theatre,865,Arts & Theatre,Theatre,Musical,Westminster
ZKr9uZKbZL4Ze3A4LZekC,Mamma Mia!,2026-07-15,19:30:00,False,London,-0.119423,51.511933,Novello Theatre,1146,Arts & Theatre,Theatre,Musical,Westminster
ZKr9uZKbZL4Ze3eNbZe6e,Hamilton,2026-07-15,19:30:00,False,London,-0.142382,51.497012,Victoria Palace Theatre,1550,Arts & Theatre,Theatre,Musical,Westminster
ZKr9uZKbZL4Ze8-4-Zda2,Hadestown,2026-07-15,19:30:00,False,London,-0.133935,51.511248,Lyric Theatre,967,Arts & Theatre,Theatre,Musical,Westminster
ZKr9uZKbZL4ZeCOjfZkAe,Moulin Rouge! The Musical,2026-07-15,19:30:00,False,London,-0.1353998,51.5110543,Piccadilly Theatre,-1,Arts & Theatre,Theatre,Musical,Westminster
ZKr9uZKbZL4ZeCj6jZkF6,Disney's The Lion King,2026-07-15,19:30:00,False,London,-0.120008,51.511718,Lyceum Theatre,2100,Arts & Theatre,Theatre,Musical,Westminster
